,NomeEstacao,CodEstacao,Bacia,SubBacia,Operadora,Responsavel,Municipio-UF,Latitude,Longitude,Altitude,CodRio,NomeRio,Origem,StatusEstacao
0,UHE BELO MONTE BR230,00351004,1,18,00594 - NORTE ENERGIA - Norte Energia S.A,00594 - NORTE ENERGIA - Norte Energia S.A,VITÓRIA DO XINGU-PA,-3.12670,-51.79060,33.00,0,,Setor Elétrico,Ativo
1,UHE BELO MONTE SÍTIO PIMENTAL,00351005,1,18,00594 - NORTE ENERGIA - Norte Energia S.A,00594 - NORTE ENERGIA - Norte Energia S.A,VITÓRIA DO XINGU-PA,-3.37580,-51.94030,110.00,0,,Setor Elétrico,Ativo
2,UHE BELO MONTE VISTA ALEGRE,00352009,1,18,00594 - NORTE ENERGIA - Norte Energia S.A,00594 - NORTE ENERGIA - Norte Energia S.A,ALTAMIRA-PA,-3.11860,-52.25250,125.00,0,,Setor Elétrico,Ativo
3,UHE BELO MONTE SÃO FRANCISCO,00352010,1,18,00594 - NORTE ENERGIA - Norte Energia S.A,00594 - NORTE ENERGIA - Norte Energia S.A,ALTAMIRA-PA,-3.25330,-52.34890,124.00,0,,Setor Elétrico,Ativo
4,UHE BELO MONTE JOARI,00652002,1,18,00594 - NORTE ENERGIA - Norte Energia S.A,00594 - NORTE ENERGIA - Norte Energia S.A,SÃO FÉLIX DO XINGÚ-PA,-6.56030,-52.07640,0.00,0,,Setor Elétrico,Ativo
5,MÂNCIO LIMA,00772006,1,12,00380 - SEMA-AC - Secretaria de Meio Ambiente do Estado do Acre,00380 - SEMA-AC - Secretaria de Meio Ambiente do Estado do Acre,MÂNCIO LIMA-AC,-7.59360,-72.92610,216.00,0,,RHN,Ativo
6,MATA DE SÃO JOÃO,00839052,4,48,00082 - CPRM - Cia de Pesquisa de Recursos Minerais,00001 - ANA - Agência Nacional de Águas ,OROCÓ-PE,-8.57310,-39.46190,329.00,0,,RHN,Ativo
7,MORRINHOS,00946005,3,34,00082 - CPRM - Cia de Pesquisa de Recursos Minerais,00001 - ANA - Agência Nacional de Águas ,ALTO PARNAÍBA-MA,-9.62470,-46.29030,356.00,0,,RHN,Ativo
8,SENA MADUREIRA,00968006,1,13,00380 - SEMA-AC - Secretaria de Meio Ambiente do Estado do Acre,00380 - SEMA-AC - Secretaria de Meio Ambiente do Estado do Acre,SENA MADUREIRA-AC,-9.05860,-68.65920,190.00,0,,RHN,Ativo
9,SANTA ROSA,00970003,1,13,00380 - SEMA-AC - Secretaria de Meio Ambiente do Estado do Acre,00380 - SEMA-AC - Secretaria de Meio Ambiente do Estado do Acre,SANTA ROSA DO PURUS-AC,-9.43860,-70.49220,219.00,0,,RHN,Ativo
10,JORDÃO,00971002,1,12,00380 - SEMA-AC - Secretaria de Meio Ambiente do Estado do Acre,00380 - SEMA-AC - Secretaria de Meio Ambiente do Estado do Acre,JORDÃO-AC,-9.19389,-71.94917,239.00,0,,RHN,Ativo
11,UHE ESTREITO RIO PONTE ALTA,01047009,2,22,00791 - CONS.CESTE - Consórcio Estreito Energia - CESTE,00791 - CONS.CESTE - Consórcio Estreito Energia - CESTE,PONTE ALTA DO TOCANTINS-TO,-10.74610,-47.53720,316.00,0,,Setor Elétrico,Ativo
12,UHE COLÍDER METEOROLÓGICA,01055005,1,17,00028 - COPEL - Copel Geração e Transmissão S.A,00028 - COPEL - Copel Geração e Transmissão S.A,COLIDER-MT,-10.95470,-55.77810,0.00,0,,Setor Elétrico,Ativo
13,PCH ÂNGELO CASSOL MONTANTE,01162007,1,15,00768 - ÂNGELO CASSOL - Hidroelétrica Ângelo Cassol Ltda.,00768 - ÂNGELO CASSOL - Hidroelétrica Ângelo Cassol Ltda.,ALTA FLORESTA D''OESTE-RO,-11.92920,-62.08780,292.00,0,,Setor Elétrico,Ativo
14,PCH MONTE BELO MONTANTE,01162008,1,15,00307 - ELETROSSOL - Centrais Elétricas Cassol  Ltda.-ELETROSSOL,00307 - ELETROSSOL - Centrais Elétricas Cassol  Ltda.-ELETROSSOL,ALTA FLORESTA D''OESTE-RO,-11.95560,-62.17940,316.00,0,,Setor Elétrico,Ativo
15,PCH SALDANHA PLU,01162011,1,15,01109 - HIDROLUZ - Hidroluz Centrais Elétricas Ltda.,01109 - HIDROLUZ - Hidroluz Centrais Elétricas Ltda.,ALTA FLORESTA D''OESTE-RO,-11.95860,-62.18390,310.00,0,,Setor Elétrico,Ativo
16,PROJETO RIO FORMOSO,01249002,2,26,00082 - CPRM - Cia de Pesquisa de Recursos Minerais,00001 - ANA - Agência Nacional de Águas ,FORMOSO DO ARAGUAIA-TO,-11.83940,-49.77170,196.00,0,,RHN,Ativo
17,PCH CABIXI MONTANTE,01260008,1,15,00686 - CASSOL - Cassol Centrais Elétricas Ltda.,00686 - CASSOL - Cassol Centrais Elétricas Ltda.,VILHENA-RO,-12.89920,-60.10830,612.00,0,,Setor Elétrico,Ativo
18,PCH CASCATA CHUPINGUAIA PLU,01260012,1,15,00561 - CHUPINGUAIA - Hidroelétrica Chupinguaia Ltda.,00561 - CHUPINGUAIA - Hidroelétrica Chupinguaia Ltda.,CHUPINGUAIA-RO,-12.85420,-60.85060,267.00,0,,Setor Elétrico,Ativo
19,CGH SANTA LUZIA DOESTE PLU,01261002,1,15,00559 - BERGAMIN - Hidroelétrica Bergamin Ltda.,00559 - BERGAMIN - Hidroelétrica Bergamin Ltda.,ALTO ALEGRE DOS PARECIS-RO,-12.34330,-61.76920,356.00,0,,Setor Elétrico,Ativo
20,PZ_FAZ VEREDA DO OURO - SEDE,01445012,4,45,00082 - CPRM - Cia de Pesquisa de Recursos Minerais,00001 - ANA - Agência Nacional de Águas ,COCOS-BA,-14.58360,-45.54220,0.00,0,,RHN,Ativo
21,PZ_FAZ VEREDA DO OURO - VEREDINHA,01445013,4,45,00082 - CPRM - Cia de Pesquisa de Recursos Minerais,00001 - ANA - Agência Nacional de Águas ,COCOS-BA,-14.60920,-45.51970,0.00,0,,RHN,Ativo
22,PZ_ESCOLA FAZ SANTA COLOMBA,01445014,4,45,00082 - CPRM - Cia de Pesquisa de Recursos Minerais,00001 - ANA - Agência Nacional de Águas ,COCOS-BA,-14.67640,-45.46780,0.00,0,,RHN,Ativo
23,PZ_FAZ SANTA COLOMBA,01445015,4,45,00082 - CPRM - Cia de Pesquisa de Recursos Minerais,00001 - ANA - Agência Nacional de Águas ,COCOS-BA,-14.71280,-45.41140,0.00,0,,RHN,Ativo
24,PZ_FAZ SANTA LUZIA,01445016,4,45,00082 - CPRM - Cia de Pesquisa de Recursos Minerais,00001 - ANA - Agência Nacional de Águas ,COCOS-BA,-14.84060,-45.95780,0.00,0,,RHN,Ativo
25,PZ_PARNA I/FAZ SANTA LUZIA,01445017,4,45,00082 - CPRM - Cia de Pesquisa de Recursos Minerais,00001 - ANA - Agência Nacional de Águas ,COCOS-BA,-14.89310,-45.84940,0.00,0,,RHN,Ativo
26,UHE MANSO MET,01455013,6,66,00809 - CONS.MANSO - Consórcio UHE Manso,00809 - CONS.MANSO - Consórcio UHE Manso,CHAPADA DOS GUIMARÃES-MT,-14.86140,-55.78940,344.00,0,,Setor Elétrico,Ativo
27,PCH MACHADO MINEIRO PASSAGEM DAS ÉGUAS,01542030,5,53,00239 - HORIZONTES - Horizontes Energia S.A.,00239 - HORIZONTES - Horizontes Energia S.A.,RIO DO PRADO-MG,-15.60920,-42.54170,0.00,0,,Setor Elétrico,Ativo
28,PZ_FAZ SANTA HELENA,01543028,4,44,00082 - CPRM - Cia de Pesquisa de Recursos Minerais,00001 - ANA - Agência Nacional de Águas ,JAÍBA-MG,-15.37360,-43.68420,0.00,0,,RHN,Ativo
29,PZ_LINHA II,01543029,4,44,00082 - CPRM - Cia de Pesquisa de Recursos Minerais,00001 - ANA - Agência Nacional de Águas ,JAÍBA-MG,-15.38470,-43.72920,0.00,0,,RHN,Ativo
30,PZ_PROJ JAÍBA,01543030,4,44,00082 - CPRM - Cia de Pesquisa de Recursos Minerais,00001 - ANA - Agência Nacional de Águas ,JAÍBA-MG,-15.26080,-43.77500,0.00,0,,RHN,Ativo
31,PZ_FAZENDA MATA VELHA,01543031,4,44,00082 - CPRM - Cia de Pesquisa de Recursos Minerais,00001 - ANA - Agência Nacional de Águas ,JAÍBA-MG,-15.33280,-43.76860,0.00,0,,RHN,Ativo
32,PZ_BARREIRO VERMELHO,01543032,4,44,00082 - CPRM - Cia de Pesquisa de Recursos Minerais,00001 - ANA - Agência Nacional de Águas ,JAÍBA-MG,-15.37500,-43.66420,0.00,0,,RHN,Ativo
33,PZ_PARNA GLEBA/ESTIVA,01545009,4,45,00082 - CPRM - Cia de Pesquisa de Recursos Minerais,00001 - ANA - Agência Nacional de Águas ,CHAPADA GAUCHA-MG,-15.08640,-45.67470,0.00,0,,RHN,Ativo
34,PZ_PARNA -PORTARIA I,01545010,4,45,00082 - CPRM - Cia de Pesquisa de Recursos Minerais,00001 - ANA - Agência Nacional de Águas ,CHAPADA GAUCHA-MG,-15.18890,-45.64500,0.00,0,,RHN,Ativo
35,PZ_PARNA TORRE DIAMANTE,01545011,4,45,00082 - CPRM - Cia de Pesquisa de Recursos Minerais,00001 - ANA - Agência Nacional de Águas ,FORMOSO-MG,-15.28580,-45.91920,0.00,0,,RHN,Ativo
36,ANA SEDE - TELEMÉTRICA,01547079,6,60,00001 - ANA - Agência Nacional de Águas ,00001 - ANA - Agência Nacional de Águas ,BRASÍLIA-DF,-15.81810,-47.94500,1150.00,0,,RHN,Ativo
37,UHE SERRA DA MESA BARRO ALTO,01548050,2,20,00069 - FURNAS - Furnas Centrais Elétricas S.A.,00069 - FURNAS - Furnas Centrais Elétricas S.A.,BARRO ALTO-GO,-15.11750,-48.92420,584.00,0,,Setor Elétrico,Ativo
38,PZ_BOM JARDIM,01643045,4,44,00082 - CPRM - Cia de Pesquisa de Recursos Minerais,00001 - ANA - Agência Nacional de Águas ,SÃO JOÃO DA PONTE-MG,-16.11080,-43.85310,0.00,0,,RHN,Ativo
39,PZ_BARRA DO RIO VERDE,01643046,4,44,00082 - CPRM - Cia de Pesquisa de Recursos Minerais,00001 - ANA - Agência Nacional de Águas ,MONTES CLAROS-MG,-16.17610,-43.77420,0.00,0,,RHN,Ativo
40,PZ_PELG,01643047,4,44,00082 - CPRM - Cia de Pesquisa de Recursos Minerais,00001 - ANA - Agência Nacional de Águas ,MONTES CLAROS-MG,-16.70560,-43.76720,0.00,0,,RHN,Ativo
41,PZ_ETE VIEIRA,01643048,4,44,00082 - CPRM - Cia de Pesquisa de Recursos Minerais,00001 - ANA - Agência Nacional de Águas ,MONTES CLAROS-MG,-16.68720,-43.85440,0.00,0,,RHN,Ativo
42,PZ_FAZENDA REATA,01643049,4,44,00082 - CPRM - Cia de Pesquisa de Recursos Minerais,00001 - ANA - Agência Nacional de Águas ,CAPITÃO ENÉAS-MG,-16.06500,-43.73060,0.00,0,,RHN,Ativo
43,UHE BATALHA CRISTALINA,01647002,6,60,00069 - FURNAS - Furnas Centrais Elétricas S.A.,00069 - FURNAS - Furnas Centrais Elétricas S.A.,CRISTALINA-GO,-16.78810,-47.60330,1173.00,0,,Setor Elétrico,Ativo
44,UHE BATALHA FAZENDA BURITI,01647023,6,60,00069 - FURNAS - Furnas Centrais Elétricas S.A.,00069 - FURNAS - Furnas Centrais Elétricas S.A.,CRISTALINA-GO,-16.96830,-47.34190,881.00,0,,Setor Elétrico,Ativo
45,UHE BATALHA SÍTIO OLHO D' ÁGUA,01647024,6,60,00069 - FURNAS - Furnas Centrais Elétricas S.A.,00069 - FURNAS - Furnas Centrais Elétricas S.A.,UNAÍ-MG,-16.38920,-47.15080,974.00,0,,Setor Elétrico,Ativo
46,LASSANCE,01744010,4,41,00082 - CPRM - Cia de Pesquisa de Recursos Minerais,00001 - ANA - Agência Nacional de Águas ,LASSANCE-MG,-17.89000,-44.57670,536.00,0,,RHN,Ativo
47,UHE SERRA DO FACÃO CLIMATOLÓGICA,01747012,6,60,00334 - SERRA DO FACÃO - Serra do Facão Energia S.A.,00334 - SERRA DO FACÃO - Serra do Facão Energia S.A.,CATALÃO-GO,-17.87720,-47.70140,0.00,0,,Setor Elétrico,Ativo
48,UHE ITUMBIARA PIRACANJUBA,01749015,6,60,00069 - FURNAS - Furnas Centrais Elétricas S.A.,00069 - FURNAS - Furnas Centrais Elétricas S.A.,PIRACANJUBA-GO,-17.31060,-49.02190,730.00,0,,Setor Elétrico,Ativo
49,PCH TRONQUEIRAS SE GOVERNADOR VALADARES,01841029,5,56,01061 - CEMIG LESTE - CEMIG  Geração Leste S.A.,01061 - CEMIG LESTE - CEMIG  Geração Leste S.A.,GOVERNADOR VALADARES-MG,-18.85500,-41.96000,0.00,0,,Setor Elétrico,Ativo
50,UHE ITUMBIARA TUPACIGUARA,01848055,6,60,00069 - FURNAS - Furnas Centrais Elétricas S.A.,00069 - FURNAS - Furnas Centrais Elétricas S.A.,TUPACIGUARA-MG,-18.62170,-48.68470,917.00,0,,Setor Elétrico,Ativo
51,UHE ITUMBIARA ÁGUA LIMPA,01848059,6,60,00069 - FURNAS - Furnas Centrais Elétricas S.A.,00069 - FURNAS - Furnas Centrais Elétricas S.A.,ÁGUA LIMPA-GO,-18.07470,-48.75640,711.00,0,,Setor Elétrico,Ativo
52,UHE ITUMBIARA FAZENDA ROSAS,01848060,6,60,00069 - FURNAS - Furnas Centrais Elétricas S.A.,00069 - FURNAS - Furnas Centrais Elétricas S.A.,ANHANGUERA-GO,-18.32330,-48.22640,0.00,0,,Setor Elétrico,Ativo
53,CGH SANTA LUZIA SE ITUIUTABA,01849035,6,60,00023 - CEMIG - CEMIG Geração e Transmissão S.A,00023 - CEMIG - CEMIG Geração e Transmissão S.A,ITUIUTABA-MG,-18.96360,-49.44830,0.00,0,,Setor Elétrico,Ativo
54,UHE SÁ CARVALHO SE MESQUITA,01942033,5,56,00624 - SÁ CARVALHO - Sá Carvalho S.A,00624 - SÁ CARVALHO - Sá Carvalho S.A,MESQUITA-MG,-19.41690,-42.54920,0.00,0,,Setor Elétrico,Ativo
55,CGH SANTA LUZIA SE SERRA DO SALITRE,01946024,6,60,00023 - CEMIG - CEMIG Geração e Transmissão S.A,00023 - CEMIG - CEMIG Geração e Transmissão S.A,SERRA DO SALITRE-MG,-19.11830,-46.68170,0.00,0,,Setor Elétrico,Ativo
56,PCH MARTINS SE UBERABA,01947032,6,61,01071 - CEMIG OESTE - CEMIG Geração Oeste S.A.,01071 - CEMIG OESTE - CEMIG Geração Oeste S.A.,UBERABA-MG,-19.71970,-47.91420,0.00,0,,Setor Elétrico,Ativo
57,ROSÁRIO DA LIMEIRA,02042051,5,58,00101 - IGAM-MG - Instituto Mineiro de Gestão das Águas,00101 - IGAM-MG - Instituto Mineiro de Gestão das Águas,ROSÁRIO DA LIMEIRA-MG,-20.97888,-42.50944,0.00,0,,RHN,Ativo
58,CGH NOVA PONTE QUEIMADA II BARRAMENTO,02042436,5,56,01132 - LIMPA - Energia Limpa Participações Ltda.,01132 - LIMPA - Energia Limpa Participações Ltda.,RIO CASCA-MG,-20.27690,-42.65170,350.00,0,,Setor Elétrico,Ativo
59,UHE PETI SÃO GONÇALO DO RIO ACIMA,02043063,5,56,01061 - CEMIG LESTE - CEMIG  Geração Leste S.A.,01061 - CEMIG LESTE - CEMIG  Geração Leste S.A.,BARÃO DE COCAIS-MG,-20.02530,-43.53920,0.00,0,,Setor Elétrico,Ativo
60,CONSELHEIRO LAFAIETE,02043133,4,40,00101 - IGAM-MG - Instituto Mineiro de Gestão das Águas,00001 - ANA - Agência Nacional de Águas ,CONSELHEIRO LAFAIETE-MG,-20.62500,-43.75360,996.00,0,,RHN,Ativo
61,UHE CAJURU FAZENDA CAMPO GRANDE,02044063,4,40,01071 - CEMIG OESTE - CEMIG Geração Oeste S.A.,01071 - CEMIG OESTE - CEMIG Geração Oeste S.A.,PASSA TEMPO-MG,-20.62610,-44.43780,0.00,0,,Setor Elétrico,Ativo
62,LAGOA DOURADA,02044079,4,40,00101 - IGAM-MG - Instituto Mineiro de Gestão das Águas,00101 - IGAM-MG - Instituto Mineiro de Gestão das Águas,LAGOA DOURADA-MG,-20.91027,-44.07750,0.00,13330000,RIO ACRE,RHN,Ativo
63,CGH ANIL SE PIMENTA,02045031,6,61,00023 - CEMIG - CEMIG Geração e Transmissão S.A,00023 - CEMIG - CEMIG Geração e Transmissão S.A,PIMENTA-MG,-20.46830,-45.79310,0.00,0,,Setor Elétrico,Ativo
64,UHE MARECHAL MASCARENHAS DE MORAES ITAÚ DE MINAS,02046031,6,61,00069 - FURNAS - Furnas Centrais Elétricas S.A.,00069 - FURNAS - Furnas Centrais Elétricas S.A.,ITAÚ DE MINAS-MG,-20.74890,-46.74360,0.00,0,,Setor Elétrico,Ativo
65,UHE LUIZ CARLOS BARRETO DE CARVALHO MET,02047115,6,61,00069 - FURNAS - Furnas Centrais Elétricas S.A.,00069 - FURNAS - Furnas Centrais Elétricas S.A.,PEDREGULHO-SP,-20.15830,-47.27810,725.00,0,,Setor Elétrico,Ativo
66,UHE PORTO COLÔMBIA PLU,02048096,6,61,00069 - FURNAS - Furnas Centrais Elétricas S.A.,00069 - FURNAS - Furnas Centrais Elétricas S.A.,PLANURA-MG,-20.11920,-48.57310,0.00,0,,Setor Elétrico,Ativo
67,UHE MARIMBONDO MET,02049070,6,61,00069 - FURNAS - Furnas Centrais Elétricas S.A.,00069 - FURNAS - Furnas Centrais Elétricas S.A.,FRONTEIRA-MG,-20.29250,-49.19670,454.00,0,,Setor Elétrico,Ativo
68,FAZENDA UMBAÚBAS,02142004,5,58,00082 - CPRM - Cia de Pesquisa de Recursos Minerais,00001 - ANA - Agência Nacional de Águas ,MURIAÉ-MG,-21.05030,-42.51560,490.00,0,,RHN,Ativo
69,SÃO SEBASTIÃO DA VARGEM ALEGRE,02142096,5,58,00101 - IGAM-MG - Instituto Mineiro de Gestão das Águas,00101 - IGAM-MG - Instituto Mineiro de Gestão das Águas,SÃO SEBASTIÃO DA VARGEM ALEGRE-MG,-21.07250,-42.63694,0.00,0,,RHN,Ativo
70,MIRAI,02142097,5,58,00101 - IGAM-MG - Instituto Mineiro de Gestão das Águas,00101 - IGAM-MG - Instituto Mineiro de Gestão das Águas,MIRAÍ-MG,-21.19472,-42.61583,0.00,0,,RHN,Ativo
71,PCH MARMELOS SE JUIZ DE FORA,02143064,5,58,01060 - CEMIG SUL - CEMIG Geração Sul S.A.,01060 - CEMIG SUL - CEMIG Geração Sul S.A.,JUIZ DE FORA-MG,-21.71140,-43.40310,0.00,0,,Setor Elétrico,Ativo
72,PCH MARMELOS CHAPÉU D'UVAS,02143162,5,58,01060 - CEMIG SUL - CEMIG Geração Sul S.A.,01060 - CEMIG SUL - CEMIG Geração Sul S.A.,JUIZ DE FORA-MG,-21.58530,-43.52720,746.00,0,,Setor Elétrico,Ativo
73,UHE LUIZ CARLOS BARRETO DE CARVALHO BOA ESPERANÇA,02145048,6,61,00069 - FURNAS - Furnas Centrais Elétricas S.A.,00069 - FURNAS - Furnas Centrais Elétricas S.A.,BOA ESPERANÇA-MG,-21.08780,-45.56860,772.00,0,,Setor Elétrico,Ativo
74,FAZENDA DAS FLORES,02147012,6,61,00010 - DAEE-SP - Departamento de Águas e Energia Elétrica do E...,00010 - DAEE-SP - Departamento de Águas e Energia Elétrica do E...,CRAVINHOS-SP,-21.33330,-47.78330,720.00,0,,RHN,Ativo
75,FAZENDA RESFRIADO,02147013,6,61,00010 - DAEE-SP - Departamento de Águas e Energia Elétrica do E...,00010 - DAEE-SP - Departamento de Águas e Energia Elétrica do E...,RIBEIRÃO PRETO-SP,-21.30000,-47.93330,590.00,0,,RHN,Ativo
76,CRAVINHOS,02147014,6,61,00010 - DAEE-SP - Departamento de Águas e Energia Elétrica do E...,00010 - DAEE-SP - Departamento de Águas e Energia Elétrica do E...,CRAVINHOS-SP,-21.36670,-47.71670,700.00,0,,RHN,Ativo
77,PEDRO DO RIO,02243012,5,58,00082 - CPRM - Cia de Pesquisa de Recursos Minerais,00001 - ANA - Agência Nacional de Águas ,PETRÓPOLIS-RJ,-22.33250,-43.13610,645.00,0,,RHN,Ativo
78,UHE SIMPLÍCIO FAZENDA SANTA MÔNICA,02243507,5,58,00069 - FURNAS - Furnas Centrais Elétricas S.A.,00069 - FURNAS - Furnas Centrais Elétricas S.A.,VALENÇA-RJ,-22.36080,-43.69780,0.00,0,,Setor Elétrico,Ativo
79,UHE SIMPLÍCIO METEOROLÓGICA,02243508,5,58,00069 - FURNAS - Furnas Centrais Elétricas S.A.,00069 - FURNAS - Furnas Centrais Elétricas S.A.,SAPUCAIA-RJ,-22.03890,-43.00060,414.00,0,,Setor Elétrico,Ativo
80,UEL VIGÁRIO PASSO TRÊS,02244107,5,58,00008 - LIGHT - Light Energia S.A,00008 - LIGHT - Light Energia S.A,RIO CLARO-RJ,-22.69250,-44.00690,450.00,0,,Setor Elétrico,Ativo
81,UHE FUNIL RESENDE AEROPORTO,02244161,5,58,00069 - FURNAS - Furnas Centrais Elétricas S.A.,00069 - FURNAS - Furnas Centrais Elétricas S.A.,RESENDE-RJ,-22.47560,-44.47360,0.00,0,,Setor Elétrico,Ativo
82,UHE FUNIL GUARATINGUETÁ,02245032,5,58,00069 - FURNAS - Furnas Centrais Elétricas S.A.,00069 - FURNAS - Furnas Centrais Elétricas S.A.,GUARATINGUETÁ-SP,-22.80890,-45.20080,558.00,0,,Setor Elétrico,Ativo
83,ESTRADA DE CUNHA (DA),02245056,5,58,00010 - DAEE-SP - Departamento de Águas e Energia Elétrica do E...,00010 - DAEE-SP - Departamento de Águas e Energia Elétrica do E...,CUNHA-SP,-22.98330,-45.05000,800.00,0,,RHN,Ativo
84,PIRES,02246176,6,62,00010 - DAEE-SP - Departamento de Águas e Energia Elétrica do E...,00010 - DAEE-SP - Departamento de Águas e Energia Elétrica do E...,EXTREMA-MG,-22.87140,-46.36190,0.00,62263000,RIO JAGUARI,RHN,Ativo
85,UHE SALTO GRANDE FAZENDA SÃO PAULO,02249113,6,64,00131 - PARANAPANEMA - Rio Paranapanema Energia S.A,00131 - PARANAPANEMA - Rio Paranapanema Energia S.A,ÁGUAS DE SANTA BARBARA-SP,-22.76190,-49.24310,643.00,0,,Setor Elétrico,Ativo
86,UHE CANOAS I CÂNDIDO MOTTA,02250097,6,64,00800 - CONS.CANOAS - Consórcio UHE Canoas,00800 - CONS.CANOAS - Consórcio UHE Canoas,PLATINA-SP,-22.75330,-50.46940,437.00,0,,Setor Elétrico,Ativo
87,UHE CANOAS I PLATINA,02250098,6,64,00800 - CONS.CANOAS - Consórcio UHE Canoas,00800 - CONS.CANOAS - Consórcio UHE Canoas,PLATINA-SP,-22.60810,-50.18080,472.00,0,,Setor Elétrico,Ativo
88,UHE CANOAS II IBIRAREMA,02250099,6,64,00800 - CONS.CANOAS - Consórcio UHE Canoas,00800 - CONS.CANOAS - Consórcio UHE Canoas,IBIRAREMA-SP,-22.86640,-50.09360,432.00,0,,Setor Elétrico,Ativo
89,UHE CANOAS II PALMITAL,02250100,6,64,00800 - CONS.CANOAS - Consórcio UHE Canoas,00800 - CONS.CANOAS - Consórcio UHE Canoas,PALMITAL-SP,-22.72220,-50.13580,530.00,0,,Setor Elétrico,Ativo
90,UHE TAQUARUÇU ANHUMAS,02251080,6,64,00131 - PARANAPANEMA - Rio Paranapanema Energia S.A,00131 - PARANAPANEMA - Rio Paranapanema Energia S.A,ANHUMAS-SP,-22.29970,-51.43030,451.00,0,,Setor Elétrico,Ativo
91,UHE TAQUARUÇU CENTENÁRIO DO SUL,02251081,6,64,00131 - PARANAPANEMA - Rio Paranapanema Energia S.A,00131 - PARANAPANEMA - Rio Paranapanema Energia S.A,CENTENÁRIO DO SUL-PR,-22.83170,-51.60280,514.00,0,,Setor Elétrico,Ativo
92,FAZENDA DO CUME,02344001,5,58,00010 - DAEE-SP - Departamento de Águas e Energia Elétrica do E...,00010 - DAEE-SP - Departamento de Águas e Energia Elétrica do E...,CUNHA-SP,-23.08330,-44.90000,900.00,0,,RHN,Ativo
93,PONTE ALTA (DA),02345149,5,58,00010 - DAEE-SP - Departamento de Águas e Energia Elétrica do E...,00010 - DAEE-SP - Departamento de Águas e Energia Elétrica do E...,SÃO LUÍS DO PARAITINGA-SP,-23.31670,-45.13330,0.00,0,,RHN,Ativo
94,ATIBAIA,02346449,6,62,00010 - DAEE-SP - Departamento de Águas e Energia Elétrica do E...,00010 - DAEE-SP - Departamento de Águas e Energia Elétrica do E...,ATIBAIA-SP,-23.10530,-46.55580,0.00,62260100,RIO ATIBAIA,RHN,Ativo
95,PCH PORTO GÓES BOM JARDIM,02346469,6,62,00084 - EMAE - EMAE,00084 - EMAE - EMAE,JUNDIAÍ-SP,-23.15250,-46.99000,732.55,0,,Setor Elétrico,Ativo
96,UHE JURUMIRIM BREJAUVA,02347192,6,64,00131 - PARANAPANEMA - Rio Paranapanema Energia S.A,00131 - PARANAPANEMA - Rio Paranapanema Energia S.A,SÃO MIGUEL ARCANJO-SP,-23.78560,-47.63560,745.00,0,,Setor Elétrico,Ativo
97,UHE CANOAS I BAIRRO MORRO CAVADO,02348090,6,64,00800 - CONS.CANOAS - Consórcio UHE Canoas,00800 - CONS.CANOAS - Consórcio UHE Canoas,BURI-SP,-23.71220,-48.70420,666.00,0,,Setor Elétrico,Ativo
98,UHE CANOAS II FAZENDA TRÊS LAGOAS,02348092,6,64,00800 - CONS.CANOAS - Consórcio UHE Canoas,00800 - CONS.CANOAS - Consórcio UHE Canoas,ANGATUBA-SP,-23.42830,-48.44000,712.00,0,,Setor Elétrico,Ativo
99,UHE CHAVANTES FAZENDA SÃO JOÃO,02349076,6,64,00131 - PARANAPANEMA - Rio Paranapanema Energia S.A,00131 - PARANAPANEMA - Rio Paranapanema Energia S.A,RIVERSUL-SP,-23.85170,-49.39500,659.80,0,,Setor Elétrico,Ativo
100,PCH APUCARANINHA MONTANTE 2,02351080,6,64,00028 - COPEL - Copel Geração e Transmissão S.A,00028 - COPEL - Copel Geração e Transmissão S.A,APUCARANA-PR,-23.51750,-51.53030,0.00,0,,Setor Elétrico,Ativo
101,UHE CANOAS I BAIRRO CACHIMBA,02448071,6,64,00800 - CONS.CANOAS - Consórcio UHE Canoas,00800 - CONS.CANOAS - Consórcio UHE Canoas,APIAÍ-SP,-24.48310,-48.77690,880.00,0,,Setor Elétrico,Ativo
102,UHE CANOAS I BAIRRO CANTAGALO,02448072,6,64,00800 - CONS.CANOAS - Consórcio UHE Canoas,00800 - CONS.CANOAS - Consórcio UHE Canoas,ITAPEVA-SP,-24.09360,-48.63890,950.00,0,,Setor Elétrico,Ativo
103,UHE CANOAS II CAPÃO LIMPO,02448073,6,64,00800 - CONS.CANOAS - Consórcio UHE Canoas,00800 - CONS.CANOAS - Consórcio UHE Canoas,CAPÃO BONITO-SP,-24.07140,-48.18250,635.00,0,,Setor Elétrico,Ativo
104,JAGUARIAIVA,02449040,6,64,00052 - IAT-PR - Instituto Água e Terra do Paraná,00052 - IAT-PR - Instituto Água e Terra do Paraná,JAGUARIAIVA-PR,-24.26420,-49.73170,890.00,0,,RHN,Ativo
105,UHE CHAVANTES BERTANHOLI,02449067,6,64,00131 - PARANAPANEMA - Rio Paranapanema Energia S.A,00131 - PARANAPANEMA - Rio Paranapanema Energia S.A,ITARARÉ-SP,-24.09030,-49.32920,725.00,0,,Setor Elétrico,Ativo
106,BOM JARDIM MONTANTE,02450009,6,64,00052 - IAT-PR - Instituto Água e Terra do Paraná,00052 - IAT-PR - Instituto Água e Terra do Paraná,TIBAGI-PR,-24.67780,-50.48440,750.00,0,,RHN,Ativo
107,UHE ITAIPU MANOEL RIBAS,02451057,6,64,00090 - ITAIPU - Itaipu  Binacional,00090 - ITAIPU - Itaipu  Binacional,MANOEL RIBAS-PR,-24.51330,-51.66500,878.00,0,,Setor Elétrico,Ativo
108,UHE ITAIPU SANTA MARIA,02451059,6,64,00090 - ITAIPU - Itaipu  Binacional,00090 - ITAIPU - Itaipu  Binacional,SANTA MARIA DO OESTE-PR,-24.93330,-51.88330,550.00,0,,Setor Elétrico,Ativo
109,UHE ITAIPU UBIRATÃ,02452062,6,64,00090 - ITAIPU - Itaipu  Binacional,00090 - ITAIPU - Itaipu  Binacional,UBIRATÃ-PR,-24.55330,-52.98580,530.00,0,,Setor Elétrico,Ativo
110,CGH MARUMBI GUARATUBA,02548079,8,82,00028 - COPEL - Copel Geração e Transmissão S.A,00028 - COPEL - Copel Geração e Transmissão S.A,GUARATUBA-PR,-25.84530,-48.58030,0.00,0,,Setor Elétrico,Ativo
111,CGH MARUMBI ANTONINA,02548098,8,82,00028 - COPEL - Copel Geração e Transmissão S.A,00028 - COPEL - Copel Geração e Transmissão S.A,ANTONINA-PR,-25.24330,-48.75220,0.00,0,,Setor Elétrico,Ativo
112,ENTREMAR,02549113,6,65,00052 - IAT-PR - Instituto Água e Terra do Paraná,00052 - IAT-PR - Instituto Água e Terra do Paraná,PIRAQUARA-PR,-25.48920,-49.04080,900.00,0,,RHN,Ativo
113,UHE SALTO SANTIAGO GUARAPUAVA,02551015,6,65,00112 - ENGIE - Engie Brasil Energia S.A.,00112 - ENGIE - Engie Brasil Energia S.A.,GUARAPUAVA-PR,-25.36560,-51.49560,1051.00,0,,Setor Elétrico,Ativo
114,UHE SALTO SANTIAGO GOIOXIM,02551063,6,65,00112 - ENGIE - Engie Brasil Energia S.A.,00112 - ENGIE - Engie Brasil Energia S.A.,GUARAPUAVA-PR,-25.24060,-51.92750,917.00,0,,Setor Elétrico,Ativo
115,UHE SALTO OSÓRIO PINHÃO,02551069,6,65,00112 - ENGIE - Engie Brasil Energia S.A.,00112 - ENGIE - Engie Brasil Energia S.A.,PINHÃO-PR,-25.66170,-51.66220,1070.00,0,,Setor Elétrico,Ativo
116,UHE FUNDÃO GUARAPUAVA,02551070,6,65,00289 - ELEJOR - Centrais Elétricas do Rio Jordão S.A-ELEJOR,00289 - ELEJOR - Centrais Elétricas do Rio Jordão S.A-ELEJOR,GUARAPUAVA-PR,-25.38470,-51.49390,0.00,0,,Setor Elétrico,Ativo
117,UHE FUNDÃO PINHÃO,02551071,6,65,00289 - ELEJOR - Centrais Elétricas do Rio Jordão S.A-ELEJOR,00289 - ELEJOR - Centrais Elétricas do Rio Jordão S.A-ELEJOR,PINHÃO-PR,-25.64920,-51.96250,0.00,0,,Setor Elétrico,Ativo
118,UHE SANTA CLARA ENTRE RIOS,02551072,6,65,00289 - ELEJOR - Centrais Elétricas do Rio Jordão S.A-ELEJOR,00289 - ELEJOR - Centrais Elétricas do Rio Jordão S.A-ELEJOR,GUARAPUAVA-PR,-25.54580,-51.48830,0.00,0,,Setor Elétrico,Ativo
119,UHE SALTO OSÓRIO LARANJEIRAS DO SUL,02552009,6,65,00112 - ENGIE - Engie Brasil Energia S.A.,00112 - ENGIE - Engie Brasil Energia S.A.,LARANJEIRAS DO SUL-PR,-25.39780,-52.43500,810.00,0,,Setor Elétrico,Ativo
120,UHE SALTO SANTIAGO CHOPINZINHO PLU,02552030,6,65,00112 - ENGIE - Engie Brasil Energia S.A.,00112 - ENGIE - Engie Brasil Energia S.A.,CHOPINZINHO-PR,-25.86000,-52.52690,738.00,0,,Setor Elétrico,Ativo
121,UHE ITÁ CAÇADOR PLU,02650035,7,72,00804 - CONS.ITÁ - Consórcio UHE Itá,00804 - CONS.ITÁ - Consórcio UHE Itá,CAÇADOR-SC,-26.81920,-50.98560,960.00,0,,Setor Elétrico,Ativo
122,COOPERATIVA TRITÍCOLA SANANDUVA,02751063,7,72,00266 - SEMA-RS - SEMA-RS,00266 - SEMA-RS - SEMA-RS,SANANDUVA-RS,-27.95890,-51.79560,0.00,0,,RHN,Ativo
123,PARQUE DE EVENTOS PINHAL DA SERRA,02751066,7,70,00266 - SEMA-RS - SEMA-RS,00266 - SEMA-RS - SEMA-RS,PINHAL DA SERRA-RS,-27.87920,-51.17690,0.00,0,,RHN,Ativo
124,UHE FOZ DO CHAPECÓ NONOAI,02752032,7,73,00442 - FOZ DO CHAPECÓ - Foz do Chapecó Energia S.A,00442 - FOZ DO CHAPECÓ - Foz do Chapecó Energia S.A,NONOAI-RS,-27.33250,-52.78720,594.00,0,,Setor Elétrico,Ativo
125,UHE ITÁ ERECHIM PLU,02752035,7,73,00804 - CONS.ITÁ - Consórcio UHE Itá,00804 - CONS.ITÁ - Consórcio UHE Itá,ERECHIM-RS,-27.65750,-52.32030,767.00,0,,Setor Elétrico,Ativo
126,COOPAC CONSTANTINA,02752060,7,74,00266 - SEMA-RS - SEMA-RS,00266 - SEMA-RS - SEMA-RS,CONSTANTINA-RS,-27.72530,-52.97810,0.00,0,,RHN,Ativo
127,AGROP. PAPAGAIO CHARÕA SARANDI,02752061,7,74,00266 - SEMA-RS - SEMA-RS,00266 - SEMA-RS - SEMA-RS,SARANDI-RS,-27.92530,-52.82000,0.00,0,,RHN,Ativo
128,PREFEITURA BARRA DO RIO AZUL,02752062,7,73,00266 - SEMA-RS - SEMA-RS,00266 - SEMA-RS - SEMA-RS,BARRA DO RIO AZUL-RS,-27.41000,-52.41560,0.00,0,,RHN,Ativo
129,UHE FOZ DO CHAPECÓ CAIBI,02753029,7,74,00442 - FOZ DO CHAPECÓ - Foz do Chapecó Energia S.A,00442 - FOZ DO CHAPECÓ - Foz do Chapecó Energia S.A,CAIBI-SC,-27.07470,-53.23920,369.00,0,,Setor Elétrico,Ativo
130,PREFEITURA CERRO GRANDE,02753053,7,74,00266 - SEMA-RS - SEMA-RS,00266 - SEMA-RS - SEMA-RS,CERRO GRANDE-RS,-27.61030,-53.16670,0.00,0,,RHN,Ativo
131,CGH LINHA GRANJA VELHA BARRAMENTO,02753058,7,74,00179 - CRELUZ G - CRELUZ G,00179 - CRELUZ G - CRELUZ G,TAQUARUÇU DO SUL-RS,-27.42670,-53.54000,277.00,0,,Setor Elétrico,Ativo
132,POUSADA APARADOS DA SERRA S.J. AUSENTES,02849066,7,70,00266 - SEMA-RS - SEMA-RS,00266 - SEMA-RS - SEMA-RS,SÃO JOSÉ DOS AUSENTES-RS,-28.60640,-49.82060,0.00,0,,RHN,Ativo
133,VACARIA,02850045,7,70,00082 - CPRM - Cia de Pesquisa de Recursos Minerais,00001 - ANA - Agência Nacional de Águas ,VACARIA-RS,-28.48970,-50.93610,956.00,0,,RHN,Ativo
134,BRIGADA MILITAR BOM JESUS,02850048,8,86,00266 - SEMA-RS - SEMA-RS,00266 - SEMA-RS - SEMA-RS,BOM JESUS-RS,-28.67170,-50.43360,0.00,0,,RHN,Ativo
135,GUAPORÉ,02851044,8,86,00082 - CPRM - Cia de Pesquisa de Recursos Minerais,00001 - ANA - Agência Nacional de Águas ,GUAPORÉ-RS,-28.84440,-51.87920,520.00,0,,RHN,Ativo
136,UHE MACHADINHO LAGOA VERMELHA,02851061,7,72,00808 - CONS.MACHADINHO - Consórcio UHE Machadinho,00808 - CONS.MACHADINHO - Consórcio UHE Machadinho,LAGOA VERMELHA-RS,-28.22220,-51.51250,805.00,0,,Setor Elétrico,Ativo
137,IBIRAIARAS,02851072,8,86,00082 - CPRM - Cia de Pesquisa de Recursos Minerais,00001 - ANA - Agência Nacional de Águas ,IBIRAIARAS-RS,-28.38110,-51.63310,788.00,0,,RHN,Ativo
138,PARQUE DE RODEIOS ESMERALDA,02851079,7,70,00266 - SEMA-RS - SEMA-RS,00266 - SEMA-RS - SEMA-RS,ESMERALDA-RS,-28.06530,-51.17000,0.00,0,,RHN,Ativo
139,CGH SÃO DOMINGOS DO PRATA BARRAMENTO,02851080,8,86,01187 - DOMINGOS PRATA - Usina São Domingos do Prata Ltda.,01187 - DOMINGOS PRATA - Usina São Domingos do Prata Ltda.,VISTA ALEGRE DO PRATA-RS,-28.80920,-51.73640,411.00,0,,Setor Elétrico,Ativo
140,AULER,02852004,8,86,00082 - CPRM - Cia de Pesquisa de Recursos Minerais,00001 - ANA - Agência Nacional de Águas ,SOLEDADE-RS,-28.80390,-52.38170,700.00,0,,RHN,Ativo
141,UHE PASSO FUNDO PLU,02852057,7,73,00112 - ENGIE - Engie Brasil Energia S.A.,00112 - ENGIE - Engie Brasil Energia S.A.,PASSO FUNDO-RS,-28.22670,-52.40330,684.00,0,,Setor Elétrico,Ativo
142,AEROCLUBE CARAZINHO,02852074,8,85,00266 - SEMA-RS - SEMA-RS,00266 - SEMA-RS - SEMA-RS,CARAZINHO-RS,-28.32250,-52.81640,0.00,0,,RHN,Ativo
143,POLO UAB TAPEJARA,02852075,7,72,00266 - SEMA-RS - SEMA-RS,00266 - SEMA-RS - SEMA-RS,TAPEJARA-RS,-28.08920,-52.00610,0.00,0,,RHN,Ativo
144,CGH LINHA CURUÇU JUSANTE,02852079,8,85,01321 - LINHA CURUÇÚ - CGH Linha Curuçú Ltda.,01321 - LINHA CURUÇÚ - CGH Linha Curuçú Ltda.,SOLEDADE-RS,-28.85220,-52.68670,499.00,0,,Setor Elétrico,Ativo
145,INSTITUTO FEDERAL PANAMBI,02853052,7,75,00266 - SEMA-RS - SEMA-RS,00266 - SEMA-RS - SEMA-RS,PANAMBI-RS,-28.28170,-53.51580,0.00,0,,RHN,Ativo
146,FAZENDA ROOS SANTA BÁRBARA DO SUL,02853053,8,85,00266 - SEMA-RS - SEMA-RS,00266 - SEMA-RS - SEMA-RS,SANTA BARBARA DO SUL-RS,-28.18330,-53.22420,0.00,0,,RHN,Ativo
147,CGH FORMIGUEIRO BARRAMENTO,02853055,7,75,01188 - FORMIGUEIRO - Formigueiro Geração E Comercio De Energia Elé...,01188 - FORMIGUEIRO - Formigueiro Geração E Comercio De Energia Elé...,BOA VISTA DO CADEADO-RS,-28.53690,-53.86030,0.00,0,,Setor Elétrico,Ativo
148,CGH JOÃO DO PASSO BARRAMENTO,02853056,7,75,01190 - MFB - MFB Participações Ltda.,01190 - MFB - MFB Participações Ltda.,CONDOR-RS,-28.24500,-53.41560,439.00,75101100,ARROIO PALMEIRAS,Setor Elétrico,Ativo
149,CGH MOINHO BARRAMENTO,02853058,7,75,01265 - Moinho Geração - Moinho Geração e Comércio de Energia Elétrica...,01265 - Moinho Geração - Moinho Geração e Comércio de Energia Elétrica...,BOA VISTA DO CADEADO-RS,-28.54390,-53.81140,0.00,0,,Setor Elétrico,Ativo
150,ESCOLA CAPÃO DO CIPÓ,02854031,7,75,00266 - SEMA-RS - SEMA-RS,00266 - SEMA-RS - SEMA-RS,CAPÃO DO CIPÓ-RS,-28.94170,-54.55780,0.00,0,,RHN,Ativo
151,COOPATRIGO BOSSOROCA,02854032,7,75,00266 - SEMA-RS - SEMA-RS,00266 - SEMA-RS - SEMA-RS,BOSSOROCA-RS,-28.73250,-54.91170,0.00,0,,RHN,Ativo
152,SANTA TECLA TUPANCIRETÃ,02854036,7,75,00266 - SEMA-RS - SEMA-RS,00266 - SEMA-RS - SEMA-RS,TUPANCIRETA-RS,-28.90030,-54.15890,0.00,0,,RHN,Ativo
153,CGH COOPERMIL JUSANTE,02854039,7,74,01211 - COOPERMIL - Cooperativa Mista São Luiz LTDA.,01211 - COOPERMIL - Cooperativa Mista São Luiz LTDA.,GUARANI DAS MISSÕES-RS,-28.13890,-54.54640,245.00,0,,Setor Elétrico,Ativo
154,CRAS GARRUCHOS,02855017,7,75,00266 - SEMA-RS - SEMA-RS,00266 - SEMA-RS - SEMA-RS,GARIBALDI-RS,-28.19250,-55.63780,0.00,0,,RHN,Ativo
155,BRIGADA MILITAR STO. ANTÔNIO MISSÕES,02855018,7,75,00266 - SEMA-RS - SEMA-RS,00266 - SEMA-RS - SEMA-RS,SANTO ANTÔNIO DAS MISSÕES-RS,-28.51280,-55.22860,0.00,0,,RHN,Ativo
156,AEROPORTO TORRES,02949025,8,87,00266 - SEMA-RS - SEMA-RS,00266 - SEMA-RS - SEMA-RS,TORRES-RS,-29.41420,-49.80470,0.00,0,,RHN,Ativo
157,PREFEITURA MORRINHOS DO SUL,02949027,8,84,00266 - SEMA-RS - SEMA-RS,00266 - SEMA-RS - SEMA-RS,MORRINHOS DO SUL-RS,-29.36860,-49.93310,0.00,0,,RHN,Ativo
158,BARRAGEM DO RIO LEÃO,02949029,8,84,00266 - SEMA-RS - SEMA-RS,00266 - SEMA-RS - SEMA-RS,JACINTO MACHADO-SC,-29.09220,-49.88080,0.00,0,,RHN,Ativo
159,CÂNION FORTALEZA CAMBARÁ DO SUL,02949030,8,84,00266 - SEMA-RS - SEMA-RS,00266 - SEMA-RS - SEMA-RS,CAMBARÁ DO SUL-RS,-29.08420,-49.99860,0.00,0,,RHN,Ativo
160,MORRO DO FORNO MORRINHOS DO SUL,02949031,8,84,00266 - SEMA-RS - SEMA-RS,00266 - SEMA-RS - SEMA-RS,MORRINHOS DO SUL-RS,-29.31670,-49.98250,0.00,0,,RHN,Ativo
161,CAPÃO DOS COXOS,02950045,8,87,00082 - CPRM - Cia de Pesquisa de Recursos Minerais,00001 - ANA - Agência Nacional de Águas ,SÃO FRANCISCO DE PAULA-RS,-29.40830,-50.58420,890.00,0,,RHN,Ativo
162,BRIGADA MILITAR STO. ANTÔNIO DA PATRULHA,02950103,8,87,00266 - SEMA-RS - SEMA-RS,00266 - SEMA-RS - SEMA-RS,SANTO ANTÔNIO DA PATRULHA-RS,-29.82640,-50.51810,0.00,0,,RHN,Ativo
163,AEROPORTO CAPÁO DA CANOA,02950104,8,87,00266 - SEMA-RS - SEMA-RS,00266 - SEMA-RS - SEMA-RS,CAPÃO DA CANOA-RS,-29.76610,-50.03830,0.00,0,,RHN,Ativo
164,ETA CORSAN OSÓRIO,02950106,8,87,00266 - SEMA-RS - SEMA-RS,00266 - SEMA-RS - SEMA-RS,OSÓRIO-RS,-29.88890,-50.25810,0.00,0,,RHN,Ativo
165,BOA ESPERANÇA ROLANTE,02950107,8,87,00266 - SEMA-RS - SEMA-RS,00266 - SEMA-RS - SEMA-RS,ROLANTE-RS,-29.55860,-50.50250,0.00,0,,RHN,Ativo
166,FAZENDA TAIPAS - S.F. DE PAULA,02950108,8,87,00266 - SEMA-RS - SEMA-RS,00266 - SEMA-RS - SEMA-RS,SÃO FRANCISCO DE PAULA-RS,-29.46860,-50.45190,0.00,0,,RHN,Ativo
167,PQ. APARADOS DA SERRA CAMBARÁ DO SUL,02950109,8,86,00266 - SEMA-RS - SEMA-RS,00266 - SEMA-RS - SEMA-RS,CAMBARÁ DO SUL-RS,-29.15860,-50.07890,0.00,0,,RHN,Ativo
168,PROP. BARRA DO OURO,02950110,8,87,00266 - SEMA-RS - SEMA-RS,00266 - SEMA-RS - SEMA-RS,MAQUINÉ-RS,-29.56810,-50.28500,0.00,0,,RHN,Ativo
169,RINCÃO DOS KROEFF S.F. DE PAULA,02950111,8,87,00266 - SEMA-RS - SEMA-RS,00266 - SEMA-RS - SEMA-RS,SÃO FRANCISCO DE PAULA-RS,-29.48640,-50.35360,0.00,0,,RHN,Ativo
170,MORRO REUTER,02951142,8,87,00082 - CPRM - Cia de Pesquisa de Recursos Minerais,00001 - ANA - Agência Nacional de Águas ,MORRO REUTER-RS,-29.52890,-51.03690,492.00,0,,RHN,Ativo
171,ASCLA SANTA CLARA CARLOS BARBOSA,02951144,8,87,00266 - SEMA-RS - SEMA-RS,00266 - SEMA-RS - SEMA-RS,CARLOS BARBOSA-RS,-29.31500,-51.48830,0.00,0,,RHN,Ativo
172,CGH BOA VISTA BARRAMENTO,02951146,8,86,01044 - CERTEL - Certel Energias Renováveis S.A,01044 - CERTEL - Certel Energias Renováveis S.A,ESTRELA-RS,-29.47280,-51.86810,33.00,0,,Setor Elétrico,Ativo
173,CLUBE BARROS CASSAL,02952060,8,85,00266 - SEMA-RS - SEMA-RS,00266 - SEMA-RS - SEMA-RS,BARROS CASSAL-RS,-29.09610,-52.58860,0.00,0,,RHN,Ativo
174,IGREJA HERVEIRAS,02952061,8,85,00266 - SEMA-RS - SEMA-RS,00266 - SEMA-RS - SEMA-RS,HERVEIRAS-RS,-29.45360,-52.64860,0.00,0,,RHN,Ativo
175,FAZ. SÃO JOSÉ LINHA CARVALHO,02952065,8,85,00266 - SEMA-RS - SEMA-RS,00266 - SEMA-RS - SEMA-RS,SINIMBU-RS,-29.38220,-52.71580,0.00,0,,RHN,Ativo
176,LINHA ALMEIDA,02952066,8,85,00266 - SEMA-RS - SEMA-RS,00266 - SEMA-RS - SEMA-RS,SINIMBU-RS,-29.37000,-52.50720,0.00,0,,RHN,Ativo
177,PROPRIEDADE NOVO CABRAIS,02953068,8,85,00266 - SEMA-RS - SEMA-RS,00266 - SEMA-RS - SEMA-RS,NOVO CABRAIS-RS,-29.75580,-53.05500,0.00,0,,RHN,Ativo
178,SECR. AGRI. SÃO MARTINHO,02953071,7,76,00266 - SEMA-RS - SEMA-RS,00266 - SEMA-RS - SEMA-RS,SÃO MARTINHO DA SERRA-RS,-29.53670,-53.85390,0.00,0,,RHN,Ativo
179,RINCÃO DO HERVAL CERRO BRANCO,02953073,8,85,00266 - SEMA-RS - SEMA-RS,00266 - SEMA-RS - SEMA-RS,CERRO BRANCO-RS,-29.62920,-53.02890,0.00,0,,RHN,Ativo
180,LINHA POMERANOS AGUDO,02953074,8,85,00266 - SEMA-RS - SEMA-RS,00266 - SEMA-RS - SEMA-RS,AGUDO-RS,-29.58440,-53.14920,0.00,0,,RHN,Ativo
181,CEREAIS CENTRO SUL TUPANCIRETÃ,02953075,8,85,00266 - SEMA-RS - SEMA-RS,00266 - SEMA-RS - SEMA-RS,TUPANCIRETA-RS,-29.15030,-53.77860,0.00,0,,RHN,Ativo
182,COXILHA DO PAU FINADO SÃO GABRIEL,02954040,8,85,00266 - SEMA-RS - SEMA-RS,00266 - SEMA-RS - SEMA-RS,SÃO GABRIEL-RS,-29.95110,-54.33170,0.00,0,,RHN,Ativo
183,SECR. AGR. M. AMB. DILERMANO GUIAR,02954041,7,76,00266 - SEMA-RS - SEMA-RS,00266 - SEMA-RS - SEMA-RS,DILERMANDO DE AGUIAR-RS,-29.70750,-54.20560,0.00,0,,RHN,Ativo
184,FAZENDA SANTA TEREZA S.F. DE ASSIS,02954044,7,76,00266 - SEMA-RS - SEMA-RS,00266 - SEMA-RS - SEMA-RS,SÃO FRANCISCO DE ASSIS-RS,-29.32780,-54.94750,0.00,0,,RHN,Ativo
185,AGRP. SANTO ANTÔNIO JARI,02954045,7,76,00266 - SEMA-RS - SEMA-RS,00266 - SEMA-RS - SEMA-RS,JARÍ-RS,-29.22580,-54.19250,0.00,0,,RHN,Ativo
186,COOPERATIVA AGROSOLO UNISTALDA,02955022,7,75,00266 - SEMA-RS - SEMA-RS,00266 - SEMA-RS - SEMA-RS,UNISTALDA-RS,-29.04610,-55.15610,0.00,0,,RHN,Ativo
187,ESCOLATÉCNICA ENCRUZILHADA MAÇAMBARÁ,02955023,7,76,00266 - SEMA-RS - SEMA-RS,00266 - SEMA-RS - SEMA-RS,MAÇAMBARA-RS,-29.00580,-55.50890,0.00,0,,RHN,Ativo
188,FAZENDA CORDILHEIRA S.F. DE ASSIS,02955024,7,76,00266 - SEMA-RS - SEMA-RS,00266 - SEMA-RS - SEMA-RS,SÃO FRANCISCO DE ASSIS-RS,-29.42640,-55.15830,0.00,0,,RHN,Ativo
189,CÂMARA DE VEREADORES MAÇAMBARÁ,02956011,7,75,00266 - SEMA-RS - SEMA-RS,00266 - SEMA-RS - SEMA-RS,MAÇAMBARA-RS,-29.14780,-56.06500,0.00,0,,RHN,Ativo
190,SANCHURI (ESCOLA) URUGUAIANA,02956012,7,77,00266 - SEMA-RS - SEMA-RS,00266 - SEMA-RS - SEMA-RS,URUGUAIANA-RS,-29.54310,-56.81220,0.00,0,,RHN,Ativo
191,AGROP. CERRO DO COQUEIRO URUGUAIANA,02956013,7,76,00266 - SEMA-RS - SEMA-RS,00266 - SEMA-RS - SEMA-RS,URUGUAIANA-RS,-29.77860,-56.52060,0.00,0,,RHN,Ativo
192,ESTÂNIA FORTUNATOURUGUAIANA,02956014,7,77,00266 - SEMA-RS - SEMA-RS,00266 - SEMA-RS - SEMA-RS,URUGUAIANA-RS,-29.87440,-56.79750,0.00,0,,RHN,Ativo
193,FAZENDA SÃO LEONTINO ALEGRETE,02956016,7,76,00266 - SEMA-RS - SEMA-RS,00266 - SEMA-RS - SEMA-RS,ALEGRETE-RS,-29.75920,-56.14860,0.00,0,,RHN,Ativo
194,ETA VIAMÃO,03050011,8,87,00266 - SEMA-RS - SEMA-RS,00266 - SEMA-RS - SEMA-RS,VIAMÃO-RS,-30.09580,-50.98250,0.00,0,,RHN,Ativo
195,FAZENDA CAVALHADA PALMARES,03050014,8,87,00266 - SEMA-RS - SEMA-RS,00266 - SEMA-RS - SEMA-RS,MOSTARDAS-RS,-30.50110,-50.57750,0.00,0,,RHN,Ativo
196,ESCOLA MARIO QUINTANA MOSTADAS,03050015,8,87,00266 - SEMA-RS - SEMA-RS,00266 - SEMA-RS - SEMA-RS,MOSTARDAS-RS,-30.69440,-50.56860,0.00,0,,RHN,Ativo
197,ESTACIONAMENETO PREFEITURA SERTÃO SANTANA,03051071,8,87,00266 - SEMA-RS - SEMA-RS,00266 - SEMA-RS - SEMA-RS,SERTÃO SANTANA-RS,-30.46080,-51.60310,0.00,0,,RHN,Ativo
198,PREFEITURA MARIANA PIMENTEL,03051072,8,87,00266 - SEMA-RS - SEMA-RS,00266 - SEMA-RS - SEMA-RS,MARIANA PIMENTEL-RS,-30.35420,-51.58440,0.00,0,,RHN,Ativo
199,PROPRIEDADE BARÃO DO TRIUNFO,03051074,8,87,00266 - SEMA-RS - SEMA-RS,00266 - SEMA-RS - SEMA-RS,BARÃO DO TRIUNFO-RS,-30.50530,-51.90030,0.00,0,,RHN,Ativo
200,COTRIBÁ PANTANO GRANDE,03052025,8,85,00266 - SEMA-RS - SEMA-RS,00266 - SEMA-RS - SEMA-RS,PANTANO GRANDE-RS,-30.20420,-52.37030,0.00,0,,RHN,Ativo
201,CHECHE DOM FELICIANO,03052026,8,87,00266 - SEMA-RS - SEMA-RS,00266 - SEMA-RS - SEMA-RS,DOM FELICIANO-RS,-30.70170,-52.11220,0.00,0,,RHN,Ativo
202,COTRISEL VILA NOVA DO SUL,03053032,8,85,00266 - SEMA-RS - SEMA-RS,00266 - SEMA-RS - SEMA-RS,VILA NOVA DO SUL-RS,-30.33530,-53.89250,0.00,0,,RHN,Ativo
203,MARCO DAS ÁGUAS LAVRAS DO SUL,03054028,8,87,00266 - SEMA-RS - SEMA-RS,00266 - SEMA-RS - SEMA-RS,LAVRAS DO SUL-RS,-30.74780,-54.13750,0.00,0,,RHN,Ativo
204,AZEVEDO SODRÉ SÃO GABRIEL,03054029,7,76,00266 - SEMA-RS - SEMA-RS,00266 - SEMA-RS - SEMA-RS,SÃO GABRIEL-RS,-30.09720,-54.64390,0.00,0,,RHN,Ativo
205,FAZENDA SÃO GABRIEL,03054030,7,76,00266 - SEMA-RS - SEMA-RS,00266 - SEMA-RS - SEMA-RS,SÃO GABRIEL-RS,-30.48110,-54.55330,0.00,0,,RHN,Ativo
206,TIARAJU SÃO GABRIEL,03054031,7,76,00266 - SEMA-RS - SEMA-RS,00266 - SEMA-RS - SEMA-RS,SÃO GABRIEL-RS,-30.24470,-54.36970,0.00,0,,RHN,Ativo
207,FAZENDA ENCERRA,03055003,7,77,00082 - CPRM - Cia de Pesquisa de Recursos Minerais,00001 - ANA - Agência Nacional de Águas ,SANTANA DO LIVRAMENTO-RS,-30.69560,-55.84140,300.00,0,,RHN,Ativo
208,USINA EÓLICA CERRO CHATO,03055016,7,76,00266 - SEMA-RS - SEMA-RS,00266 - SEMA-RS - SEMA-RS,SANTANA DO LIVRAMENTO-RS,-30.79190,-55.66170,0.00,0,,RHN,Ativo
209,ESTÂNCIA SARANDI S. LIVRAMENTO,03055017,7,77,00266 - SEMA-RS - SEMA-RS,00266 - SEMA-RS - SEMA-RS,SANTANA DO LIVRAMENTO-RS,-30.66500,-55.95310,0.00,0,,RHN,Ativo
210,CABECEIRA SAICÃ ROSÁRIO DO SUL,03055018,7,76,00266 - SEMA-RS - SEMA-RS,00266 - SEMA-RS - SEMA-RS,ROSÁRIO DO SUL-RS,-30.22690,-55.15530,0.00,0,,RHN,Ativo
211,CERRO DO COMBATE S. LIVRAMENTO,03055019,7,76,00266 - SEMA-RS - SEMA-RS,00266 - SEMA-RS - SEMA-RS,SANTANA DO LIVRAMENTO-RS,-30.54690,-55.31970,0.00,0,,RHN,Ativo
212,ESTÂNCIA SANTA HILMA S. LIVRAMENTO,03055021,7,77,00266 - SEMA-RS - SEMA-RS,00266 - SEMA-RS - SEMA-RS,SANTANA DO LIVRAMENTO-RS,-30.94530,-55.66640,0.00,0,,RHN,Ativo
213,ESTÂNCIA CATY QUARAÍ,03056029,7,77,00266 - SEMA-RS - SEMA-RS,00266 - SEMA-RS - SEMA-RS,QUARAÍ-RS,-30.42470,-56.02060,0.00,0,,RHN,Ativo
214,GRANJA SANTA LUÍZA QUARAÍ,03056030,7,77,00266 - SEMA-RS - SEMA-RS,00266 - SEMA-RS - SEMA-RS,QUARAÍ-RS,-30.10280,-56.11830,0.00,0,,RHN,Ativo
215,CTG ESTÂNCIA REAL DE BOJURU,03151074,8,87,00266 - SEMA-RS - SEMA-RS,00266 - SEMA-RS - SEMA-RS,SÃO JOSÉ DO NORTE-RS,-31.65500,-51.43750,0.00,0,,RHN,Ativo
216,PQ. DE MÁQUINAS ARROIO DO PADRE,03152046,8,87,00266 - SEMA-RS - SEMA-RS,00266 - SEMA-RS - SEMA-RS,ARROIO DO PADRE-RS,-31.44580,-52.42060,0.00,0,,RHN,Ativo
217,SECRETARIA AGRIC. MORRO REDONDO,03152047,8,88,00266 - SEMA-RS - SEMA-RS,00266 - SEMA-RS - SEMA-RS,MORRO REDONDO-RS,-31.60690,-52.62640,0.00,0,,RHN,Ativo
218,ESTÂNCIA DA GRAÇA PELOTAS,03152051,8,87,00266 - SEMA-RS - SEMA-RS,00266 - SEMA-RS - SEMA-RS,PELOTAS-RS,-31.62580,-52.23000,0.00,0,,RHN,Ativo
219,SÃO LOURENÇO DO SUL - COOPAR,03152052,8,87,00266 - SEMA-RS - SEMA-RS,00266 - SEMA-RS - SEMA-RS,SÃO LOURENÇO DO SUL-RS,-31.25970,-52.20360,0.00,0,,RHN,Ativo
220,CPRM PEDRAS ALTAS,03153031,8,88,00266 - SEMA-RS - SEMA-RS,00266 - SEMA-RS - SEMA-RS,PEDRAS ALTAS-RS,-31.73360,-53.58860,0.00,0,,RHN,Ativo
221,CORSANPINHEIRO MACHADO,03153033,8,88,00266 - SEMA-RS - SEMA-RS,00266 - SEMA-RS - SEMA-RS,PINHEIRO MACHADO-RS,-31.57780,-53.37720,0.00,0,,RHN,Ativo
222,PIRATINI BRIGADA MILITAR,03153034,8,88,00266 - SEMA-RS - SEMA-RS,00266 - SEMA-RS - SEMA-RS,PIRATINI-RS,-31.43860,-53.09830,0.00,0,,RHN,Ativo
223,USINA TERMOELÉTRICA PIRATINI,03153035,8,87,00266 - SEMA-RS - SEMA-RS,00266 - SEMA-RS - SEMA-RS,PIRATINI-RS,-31.24190,-53.18080,0.00,0,,RHN,Ativo
224,ADUANA ACEGUÁ,03154011,8,88,00266 - SEMA-RS - SEMA-RS,00266 - SEMA-RS - SEMA-RS,ACEGUÁ-RS,-31.86610,-54.16720,0.00,0,,RHN,Ativo
225,AEROPORTO BAGÉ,03154012,7,79,00266 - SEMA-RS - SEMA-RS,00266 - SEMA-RS - SEMA-RS,BAGÉ-RS,-31.38890,-54.11310,0.00,0,,RHN,Ativo
226,BENTO RENGO DOM PEDRITO,03154013,7,76,00266 - SEMA-RS - SEMA-RS,00266 - SEMA-RS - SEMA-RS,DOM PEDRITO-RS,-31.27000,-54.53110,0.00,0,,RHN,Ativo
227,JOSÉ OTÍVIO BAGÉ,03154014,7,79,00266 - SEMA-RS - SEMA-RS,00266 - SEMA-RS - SEMA-RS,BAGÉ-RS,-31.17920,-54.15690,0.00,0,,RHN,Ativo
228,PASSO SÃO LUIS BAGÉ,03154015,7,79,00266 - SEMA-RS - SEMA-RS,00266 - SEMA-RS - SEMA-RS,BAGÉ-RS,-31.51190,-54.51140,0.00,0,,RHN,Ativo
229,TORQUATO SEVERO DOM PEDRITO,03154016,7,76,00266 - SEMA-RS - SEMA-RS,00266 - SEMA-RS - SEMA-RS,DOM PEDRITO-RS,-31.02220,-54.18470,0.00,0,,RHN,Ativo
230,VILA SERRILHADA DOM PEDRITO,03154017,7,76,00266 - SEMA-RS - SEMA-RS,00266 - SEMA-RS - SEMA-RS,DOM PEDRITO-RS,-31.43780,-54.71220,0.00,0,,RHN,Ativo
231,MARCO ITAQUATIÁ S. LIVRAMENTO,03155004,7,76,00266 - SEMA-RS - SEMA-RS,00266 - SEMA-RS - SEMA-RS,SANTANA DO LIVRAMENTO-RS,-31.00500,-55.34080,0.00,0,,RHN,Ativo
232,AGROPECUÁRIA POZZOBON S. LIVRAMENTO,03155005,7,76,00266 - SEMA-RS - SEMA-RS,00266 - SEMA-RS - SEMA-RS,SANTANA DO LIVRAMENTO-RS,-31.23970,-55.09440,0.00,0,,RHN,Ativo
233,BARRAGEM DO CHASQUEIRO ARROIO GRANDE,03253029,8,88,00266 - SEMA-RS - SEMA-RS,00266 - SEMA-RS - SEMA-RS,ARROIO GRANDE-RS,-32.16190,-53.00780,0.00,0,,RHN,Ativo
234,CORSAN HERVAL,03253030,8,88,00266 - SEMA-RS - SEMA-RS,00266 - SEMA-RS - SEMA-RS,HERVAL-RS,-32.02890,-53.39780,0.00,0,,RHN,Ativo
235,PASSO DO CENTURIÃO HERVAL,03253031,8,88,00266 - SEMA-RS - SEMA-RS,00266 - SEMA-RS - SEMA-RS,HERVAL-RS,-32.11940,-53.73500,0.00,0,,RHN,Ativo
236,AGRORIZA S. VITÓRIA PALMAR,03353020,8,88,00266 - SEMA-RS - SEMA-RS,00266 - SEMA-RS - SEMA-RS,SANTA VITÓRIA DO PALMAR-RS,-33.23810,-53.06190,0.00,0,,RHN,Ativo
237,RECEITA FEDERAL CHUÍ,03353021,8,88,00266 - SEMA-RS - SEMA-RS,00266 - SEMA-RS - SEMA-RS,CHUÍ-RS,-33.67720,-53.44610,0.00,0,,RHN,Ativo
238,PCH ALTO JATAPU MONTANTE 1,08059005,1,16,01198 - RORAIMA - Roraima Energia S.A.,01198 - RORAIMA - Roraima Energia S.A.,CAROEBE-RR,0.92060,-59.33250,0.00,0,,Setor Elétrico,Ativo
239,UIRAMUTÃ,08460004,1,14,00082 - CPRM - Cia de Pesquisa de Recursos Minerais,00001 - ANA - Agência Nacional de Águas ,UIRAMUTA-RR,4.59860,-60.16640,0.00,0,,RHN,Ativo
240,TAMISHIYACU,10075000,1,10,00906 - SENAMHI-PERU - SENAMHI-PERU,00906 - SENAMHI-PERU - SENAMHI-PERU,PERU-PU,-4.00360,-73.16110,105.00,10001000,RIO SOLIMÕES/AMAZONAS,RHN,Ativo
241,MAZAN,10086700,1,10,00906 - SENAMHI-PERU - SENAMHI-PERU,00906 - SENAMHI-PERU - SENAMHI-PERU,PERU-PU,-3.48810,-73.08190,0.00,10000090,RIO NAPO,RHN,Ativo
242,TABATINGA,10100000,1,10,00082 - CPRM - Cia de Pesquisa de Recursos Minerais,00001 - ANA - Agência Nacional de Águas ,TABATINGA-AM,-4.23470,-69.94470,78.00,10001000,RIO SOLIMÕES/AMAZONAS,Açudes Semiárido,Ativo
243,TABATINGA,10100000,1,10,00082 - CPRM - Cia de Pesquisa de Recursos Minerais,00001 - ANA - Agência Nacional de Águas ,TABATINGA-AM,-4.23470,-69.94470,78.00,10001000,RIO SOLIMÕES/AMAZONAS,CotaOnline,Ativo
244,TABATINGA,10100000,1,10,00082 - CPRM - Cia de Pesquisa de Recursos Minerais,00001 - ANA - Agência Nacional de Águas ,TABATINGA-AM,-4.23470,-69.94470,78.00,10001000,RIO SOLIMÕES/AMAZONAS,RHN,Ativo
245,PALMEIRAS DO JAVARI,10200000,1,10,00500 - ÁGUA E SOLO - Água e Solo Estudos e Projetos Ltda.,00001 - ANA - Agência Nacional de Águas ,ATALAIA DO NORTE-AM,-5.13890,-72.81360,142.00,10900000,RIO JAVARI,RHN,Ativo
246,PALMEIRAS DO JAVARI,10200000,1,10,00500 - ÁGUA E SOLO - Água e Solo Estudos e Projetos Ltda.,00001 - ANA - Agência Nacional de Águas ,ATALAIA DO NORTE-AM,-5.13890,-72.81360,142.00,10900000,RIO JAVARI,Inpe/Sivam(desativadas),Ativo
247,ESTIRÃO DO REPOUSO,10500000,1,10,00500 - ÁGUA E SOLO - Água e Solo Estudos e Projetos Ltda.,00001 - ANA - Agência Nacional de Águas ,ATALAIA DO NORTE-AM,-4.34080,-70.90560,89.00,10900000,RIO JAVARI,RHN,Ativo
248,LADÁRIO - JUSANTE,10910000,1,10,00500 - ÁGUA E SOLO - Água e Solo Estudos e Projetos Ltda.,00001 - ANA - Agência Nacional de Águas ,ATALAIA DO NORTE-AM,-4.58360,-70.26440,91.00,10940000,RIO ITACUAI,RHN,Ativo
249,SÃO PAULO DE OLIVENÇA,11400000,1,11,00500 - ÁGUA E SOLO - Água e Solo Estudos e Projetos Ltda.,00001 - ANA - Agência Nacional de Águas ,SÃO PAULO DE OLIVENÇA-AM,-3.45690,-68.91190,71.00,10001000,RIO SOLIMÕES/AMAZONAS,RHN,Ativo
250,SANTO ANTÔNIO DO IÇÁ,11500000,1,11,00500 - ÁGUA E SOLO - Água e Solo Estudos e Projetos Ltda.,00001 - ANA - Agência Nacional de Águas ,SANTO ANTÔNIO DO IÇÁ-AM,-3.10170,-67.93560,53.00,10001000,RIO SOLIMÕES/AMAZONAS,RHN,Ativo
251,COLOCAÇÃO CAXIAS NOVO,12100000,1,12,00500 - ÁGUA E SOLO - Água e Solo Estudos e Projetos Ltda.,00001 - ANA - Agência Nacional de Águas ,JUTAÍ-AM,-4.66610,-68.14830,0.00,12103000,RIO JUTAÍ,RHN,Ativo
252,PORTO SEGURO,12240000,1,12,00500 - ÁGUA E SOLO - Água e Solo Estudos e Projetos Ltda.,00001 - ANA - Agência Nacional de Águas ,JUTAÍ-AM,-3.33720,-67.49170,0.00,12103000,RIO JUTAÍ,RHN,Ativo
253,FONTE BOA,12351000,1,12,00500 - ÁGUA E SOLO - Água e Solo Estudos e Projetos Ltda.,00001 - ANA - Agência Nacional de Águas ,FONTE BOA-AM,-2.49140,-66.06170,0.00,10001000,RIO SOLIMÕES/AMAZONAS,RHN,Ativo
254,THAUMATURGO,12370000,1,12,00500 - ÁGUA E SOLO - Água e Solo Estudos e Projetos Ltda.,00001 - ANA - Agência Nacional de Águas ,MARECHAL THAUMATURGO-AC,-8.94580,-72.78470,0.00,12200000,RIO JURUÁ,RHN,Ativo
255,PORTO WALTER,12390000,1,12,00500 - ÁGUA E SOLO - Água e Solo Estudos e Projetos Ltda.,00001 - ANA - Agência Nacional de Águas ,PORTO WALTER-AC,-8.26720,-72.74110,0.00,12200000,RIO JURUÁ,RHN,Ativo
256,CRUZEIRO DO SUL,12500000,1,12,00500 - ÁGUA E SOLO - Água e Solo Estudos e Projetos Ltda.,00001 - ANA - Agência Nacional de Águas ,CRUZEIRO DO SUL-AC,-7.63330,-72.66030,0.00,12200000,RIO JURUÁ,RHN,Ativo
257,PONTE DO RIO LIBERDADE,12510500,1,12,00500 - ÁGUA E SOLO - Água e Solo Estudos e Projetos Ltda.,00001 - ANA - Agência Nacional de Águas ,TARAUACÁ-AC,-7.79940,-72.02110,189.00,12253000,RIO LIBERDADE,RHN,Ativo
258,IPIXUNA,12520000,1,12,00500 - ÁGUA E SOLO - Água e Solo Estudos e Projetos Ltda.,00001 - ANA - Agência Nacional de Águas ,IPIXUNA-AM,-7.05560,-71.68920,0.00,12200000,RIO JURUÁ,RHN,Ativo
259,SERINGAL SANTO AMARO,12540000,1,12,00500 - ÁGUA E SOLO - Água e Solo Estudos e Projetos Ltda.,00001 - ANA - Agência Nacional de Águas ,EIRUNEPÉ-AM,-7.26670,-70.98330,0.00,12266000,RIO GREGÓRIO,RHN,Ativo
260,EIRUNEPÉ - MONTANTE,12550000,1,12,00500 - ÁGUA E SOLO - Água e Solo Estudos e Projetos Ltda.,00001 - ANA - Agência Nacional de Águas ,EIRUNEPÉ-AM,-6.68440,-69.88110,0.00,12200000,RIO JURUÁ,RHN,Ativo
261,JORDÃO,12557000,1,12,00380 - SEMA-AC - Secretaria de Meio Ambiente do Estado do Acre,00380 - SEMA-AC - Secretaria de Meio Ambiente do Estado do Acre,JORDÃO-AC,-9.18830,-71.95250,239.00,12280000,RIO TARAUACÁ,RHN,Ativo
262,PONTE DE TARAUACÁ,12590000,1,12,00500 - ÁGUA E SOLO - Água e Solo Estudos e Projetos Ltda.,00001 - ANA - Agência Nacional de Águas ,TARAUACÁ-AC,-8.15190,-70.74560,0.00,12280000,RIO TARAUACÁ,RHN,Ativo
263,SERINGAL SANTA HELENA,12640000,1,12,00500 - ÁGUA E SOLO - Água e Solo Estudos e Projetos Ltda.,00001 - ANA - Agência Nacional de Águas ,FEIJÓ-AC,-8.68580,-70.55110,0.00,12286000,RIO ENVIRA,RHN,Ativo
264,FEIJÓ,12650000,1,12,00500 - ÁGUA E SOLO - Água e Solo Estudos e Projetos Ltda.,00001 - ANA - Agência Nacional de Águas ,FEIJÓ-AC,-8.16360,-70.35640,0.00,12286000,RIO ENVIRA,RHN,Ativo
265,ENVIRA,12680000,1,12,00500 - ÁGUA E SOLO - Água e Solo Estudos e Projetos Ltda.,00001 - ANA - Agência Nacional de Águas ,ENVIRA-AM,-7.42810,-70.02250,0.00,12280000,RIO TARAUACÁ,RHN,Ativo
266,SANTOS DUMONT,12700000,1,12,00500 - ÁGUA E SOLO - Água e Solo Estudos e Projetos Ltda.,00001 - ANA - Agência Nacional de Águas ,ITAMARATI-AM,-6.44030,-68.24610,0.00,12200000,RIO JURUÁ,RHN,Ativo
267,GAVIÃO,12840000,1,12,00500 - ÁGUA E SOLO - Água e Solo Estudos e Projetos Ltda.,00001 - ANA - Agência Nacional de Águas ,CARAUARI-AM,-4.83920,-66.85060,0.00,12200000,RIO JURUÁ,RHN,Ativo
268,FORTE DAS GRAÇAS,12842000,1,12,00500 - ÁGUA E SOLO - Água e Solo Estudos e Projetos Ltda.,00001 - ANA - Agência Nacional de Águas ,JURUÁ-AM,-3.64140,-66.10310,0.00,12200000,RIO JURUÁ,RHN,Ativo
269,VILA BITTENCOURT,12845000,1,12,00500 - ÁGUA E SOLO - Água e Solo Estudos e Projetos Ltda.,00001 - ANA - Agência Nacional de Águas ,JAPURÁ-AM,-1.39470,-69.42830,0.00,12300000,RIO CAQUETÁ/JAPURÁ,RHN,Ativo
270,ACANAUI,12850000,1,12,00500 - ÁGUA E SOLO - Água e Solo Estudos e Projetos Ltda.,00001 - ANA - Agência Nacional de Águas ,JAPURÁ-AM,-1.82110,-66.60920,0.00,12300000,RIO CAQUETÁ/JAPURÁ,RHN,Ativo
271,ESTIRÃO DA SANTA CRUZ,12880000,1,12,00500 - ÁGUA E SOLO - Água e Solo Estudos e Projetos Ltda.,00001 - ANA - Agência Nacional de Águas ,TEFÉ-AM,-4.29220,-65.20170,0.00,12403000,RIO TEFÉ,RHN,Ativo
272,TEFÉ - MISSÕES,12900001,1,12,00500 - ÁGUA E SOLO - Água e Solo Estudos e Projetos Ltda.,00001 - ANA - Agência Nacional de Águas ,TEFÉ-AM,-3.37580,-64.65470,0.00,10001000,RIO SOLIMÕES/AMAZONAS,RHN,Ativo
273,SERINGAL MOREIRA,13100000,1,13,00500 - ÁGUA E SOLO - Água e Solo Estudos e Projetos Ltda.,00001 - ANA - Agência Nacional de Águas ,COARI-AM,-5.10920,-63.98470,0.00,13100000,RIO COARI,RHN,Ativo
274,ITAPÉUA,13150000,1,13,00082 - CPRM - Cia de Pesquisa de Recursos Minerais,00001 - ANA - Agência Nacional de Águas ,COARI-AM,-4.05780,-63.02780,40.00,10001000,RIO SOLIMÕES/AMAZONAS,RHN,Ativo
275,ITAPÉUA,13150000,1,13,00082 - CPRM - Cia de Pesquisa de Recursos Minerais,00001 - ANA - Agência Nacional de Águas ,COARI-AM,-4.05780,-63.02780,40.00,10001000,RIO SOLIMÕES/AMAZONAS,Açudes Semiárido,Ativo
276,ITAPÉUA,13150000,1,13,00082 - CPRM - Cia de Pesquisa de Recursos Minerais,00001 - ANA - Agência Nacional de Águas ,COARI-AM,-4.05780,-63.02780,40.00,10001000,RIO SOLIMÕES/AMAZONAS,CotaOnline,Ativo
277,COARI,13150003,1,13,00082 - CPRM - Cia de Pesquisa de Recursos Minerais,00001 - ANA - Agência Nacional de Águas ,COARI-AM,-4.08560,-63.08330,0.00,10001000,RIO SOLIMÕES/AMAZONAS,RHN,Ativo
278,SANTA ROSA DO PURUS - SEDE,13169900,1,13,00500 - ÁGUA E SOLO - Água e Solo Estudos e Projetos Ltda.,00001 - ANA - Agência Nacional de Águas ,SANTA ROSA DO PURUS-AC,-9.43420,-70.49420,0.00,13300000,RIO PURUS,RHN,Ativo
279,MANOEL URBANO,13180000,1,13,00082 - CPRM - Cia de Pesquisa de Recursos Minerais,00001 - ANA - Agência Nacional de Águas ,MANOEL URBANO-AC,-8.88860,-69.27500,0.00,13300000,RIO PURUS,RHN,Ativo
280,SENA MADUREIRA,13310000,1,13,00082 - CPRM - Cia de Pesquisa de Recursos Minerais,00001 - ANA - Agência Nacional de Águas ,SENA MADUREIRA-AC,-9.06780,-68.65310,0.00,13329000,RIO IACO,RHN,Ativo
281,SERINGAL GUARANY,13405000,1,13,00500 - ÁGUA E SOLO - Água e Solo Estudos e Projetos Ltda.,00001 - ANA - Agência Nacional de Águas ,SENA MADUREIRA-AC,-9.11030,-68.99330,0.00,13329800,RIO CAETÉ,RHN,Ativo
282,SERINGAL DA CARIDADE,13410000,1,13,00082 - CPRM - Cia de Pesquisa de Recursos Minerais,00001 - ANA - Agência Nacional de Águas ,BOCA DO ACRE-AM,-9.04390,-68.57720,0.00,13300000,RIO PURUS,RHN,Ativo
283,ALDEIA DOS PATOS,13439000,1,13,00082 - CPRM - Cia de Pesquisa de Recursos Minerais,00001 - ANA - Agência Nacional de Águas ,ASSIS BRASIL-AC,-10.92610,-69.92330,256.00,13330000,RIO ACRE,RHN,Ativo
284,ASSIS BRASIL,13450000,1,13,00082 - CPRM - Cia de Pesquisa de Recursos Minerais,00001 - ANA - Agência Nacional de Águas ,ASSIS BRASIL-AC,-10.94360,-69.56560,0.00,13330000,RIO ACRE,CotaOnline,Ativo
285,ASSIS BRASIL,13450000,1,13,00082 - CPRM - Cia de Pesquisa de Recursos Minerais,00001 - ANA - Agência Nacional de Águas ,ASSIS BRASIL-AC,-10.94360,-69.56560,0.00,13330000,RIO ACRE,RHN,Ativo
286,BRASILÉIA,13470000,1,13,00082 - CPRM - Cia de Pesquisa de Recursos Minerais,00001 - ANA - Agência Nacional de Águas ,BRASILÉIA-AC,-11.01780,-68.74500,0.00,13330000,RIO ACRE,RHN,Ativo
287,COLÔNIA DOLORES (XAPURI),13540000,1,13,00082 - CPRM - Cia de Pesquisa de Recursos Minerais,00001 - ANA - Agência Nacional de Águas ,XAPURI-AC,-10.56060,-68.70470,0.00,13333200,RIO XAPURI,RHN,Ativo
288,XAPURI,13550000,1,13,00082 - CPRM - Cia de Pesquisa de Recursos Minerais,00001 - ANA - Agência Nacional de Águas ,XAPURI-AC,-10.65110,-68.50750,0.00,13330000,RIO ACRE,RHN,Ativo
289,CAPIXABA (Colocação São José),13568000,1,13,00082 - CPRM - Cia de Pesquisa de Recursos Minerais,00001 - ANA - Agência Nacional de Águas ,CAPIXABA-AC,-10.38860,-67.93530,0.00,13330000,RIO ACRE,RHN,Ativo
290,ESPALHA (Seringal Belo Horizonte),13572000,1,13,00082 - CPRM - Cia de Pesquisa de Recursos Minerais,00001 - ANA - Agência Nacional de Águas ,RIO BRANCO-AC,-10.00500,-68.52940,0.00,13334000,RIOZINHO DA ROLA ou RIO BRANCO,RHN,Ativo
291,RIO ROLA (Ramal do Barro Alto),13578000,1,13,00082 - CPRM - Cia de Pesquisa de Recursos Minerais,00001 - ANA - Agência Nacional de Águas ,RIO BRANCO-AC,-10.05670,-67.96390,0.00,13334000,RIOZINHO DA ROLA ou RIO BRANCO,RHN,Ativo
292,RIO BRANCO,13600002,1,13,00082 - CPRM - Cia de Pesquisa de Recursos Minerais,00001 - ANA - Agência Nacional de Águas ,RIO BRANCO-AC,-9.97500,-67.80080,0.00,13330000,RIO ACRE,RHN,Ativo
293,PORTO ACRE,13610001,1,13,00380 - SEMA-AC - Secretaria de Meio Ambiente do Estado do Acre,00380 - SEMA-AC - Secretaria de Meio Ambiente do Estado do Acre,PORTO ACRE-AC,-9.58190,-67.52810,134.00,13330000,RIO ACRE,RHN,Ativo
294,FLORIANO PEIXOTO,13650000,1,13,00500 - ÁGUA E SOLO - Água e Solo Estudos e Projetos Ltda.,00001 - ANA - Agência Nacional de Águas ,BOCA DO ACRE-AM,-9.06670,-67.39690,0.00,13330000,RIO ACRE,RHN,Ativo
295,VALPARAÍSO - MONTANTE,13710001,1,13,00500 - ÁGUA E SOLO - Água e Solo Estudos e Projetos Ltda.,00001 - ANA - Agência Nacional de Águas ,BOCA DO ACRE-AM,-8.65330,-67.37500,0.00,13300000,RIO PURUS,RHN,Ativo
296,LÁBREA,13870000,1,13,00500 - ÁGUA E SOLO - Água e Solo Estudos e Projetos Ltda.,00001 - ANA - Agência Nacional de Águas ,LÁBREA-AM,-7.25810,-64.79750,60.00,13300000,RIO PURUS,RHN,Ativo
297,CRISTO,13885000,1,13,00500 - ÁGUA E SOLO - Água e Solo Estudos e Projetos Ltda.,00001 - ANA - Agência Nacional de Águas ,LÁBREA-AM,-7.46440,-64.24330,0.00,13360200,RIO MUCUIM,RHN,Ativo
298,ARUMÃ - JUSANTE,13962000,1,13,00082 - CPRM - Cia de Pesquisa de Recursos Minerais,00001 - ANA - Agência Nacional de Águas ,BERURI-AM,-4.72860,-62.14530,0.00,13300000,RIO PURUS,RHN,Ativo
299,BERURI,13990000,1,13,00082 - CPRM - Cia de Pesquisa de Recursos Minerais,00001 - ANA - Agência Nacional de Águas ,BERURI-AM,-3.89890,-61.37420,0.00,13300000,RIO PURUS,RHN,Ativo
300,MITU AUTOMATICA,14000900,1,14,00907 - IDEAM-COLÔMBIA - IDEAM-COLÔMBIA,00907 - IDEAM-COLÔMBIA - IDEAM-COLÔMBIA,MITU-CO,1.25940,-70.23890,0.00,14230000,RIO VAUPÉS/UAUPÉS,RHN,Ativo
301,MANACAPURU,14100000,1,14,00082 - CPRM - Cia de Pesquisa de Recursos Minerais,00001 - ANA - Agência Nacional de Águas ,MANACAPURU-AM,-3.31060,-60.60940,0.00,10001000,RIO SOLIMÕES/AMAZONAS,RHN,Ativo
302,MANACAPURU,14100000,1,14,00082 - CPRM - Cia de Pesquisa de Recursos Minerais,00001 - ANA - Agência Nacional de Águas ,MANACAPURU-AM,-3.31060,-60.60940,0.00,10001000,RIO SOLIMÕES/AMAZONAS,CotaOnline,Ativo
303,CUCUÍ,14110000,1,14,00082 - CPRM - Cia de Pesquisa de Recursos Minerais,00001 - ANA - Agência Nacional de Águas ,SÃO GABRIEL DA CACHOEIRA-AM,1.21530,-66.85250,0.00,14200000,RIO NEGRO,RHN,Ativo
304,FAZENDA RECREIO,14235200,1,14,00389 - FEMARH-RR - Fundação Estadual do Meio Ambiente e Recursos...,00389 - FEMARH-RR - Fundação Estadual do Meio Ambiente e Recursos...,BOA VISTA-RR,2.86420,-60.75170,0.00,14265100,RIO CAUAME,RHN,Ativo
305,TARAQUÁ,14280001,1,14,00082 - CPRM - Cia de Pesquisa de Recursos Minerais,00001 - ANA - Agência Nacional de Águas ,SÃO GABRIEL DA CACHOEIRA-AM,0.13030,-68.53860,0.00,14230000,RIO VAUPÉS/UAUPÉS,RHN,Ativo
306,SÃO GABRIEL DA CACHOEIRA,14320001,1,14,00082 - CPRM - Cia de Pesquisa de Recursos Minerais,00001 - ANA - Agência Nacional de Águas ,SÃO GABRIEL DA CACHOEIRA-AM,-0.13670,-67.08560,0.00,14200000,RIO NEGRO,RHN,Ativo
307,SÃO GABRIEL DA CACHOEIRA,14320001,1,14,00082 - CPRM - Cia de Pesquisa de Recursos Minerais,00001 - ANA - Agência Nacional de Águas ,SÃO GABRIEL DA CACHOEIRA-AM,-0.13670,-67.08560,0.00,14200000,RIO NEGRO,CotaOnline,Ativo
308,CURICURIARI,14330000,1,14,00082 - CPRM - Cia de Pesquisa de Recursos Minerais,00001 - ANA - Agência Nacional de Águas ,SÃO GABRIEL DA CACHOEIRA-AM,-0.20060,-66.80220,0.00,14200000,RIO NEGRO,RHN,Ativo
309,TAPURUQUARA,14400000,1,14,00082 - CPRM - Cia de Pesquisa de Recursos Minerais,00001 - ANA - Agência Nacional de Águas ,SANTA IZABEL DO RIO NEGRO-AM,-0.42030,-65.01530,0.00,14200000,RIO NEGRO,RHN,Ativo
310,TAPURUQUARA,14400000,1,14,00082 - CPRM - Cia de Pesquisa de Recursos Minerais,00001 - ANA - Agência Nacional de Águas ,SANTA IZABEL DO RIO NEGRO-AM,-0.42030,-65.01530,0.00,14200000,RIO NEGRO,CotaOnline,Ativo
311,SERRINHA,14420000,1,14,00082 - CPRM - Cia de Pesquisa de Recursos Minerais,00001 - ANA - Agência Nacional de Águas ,SANTA IZABEL DO RIO NEGRO-AM,-0.48190,-64.82890,0.00,14200000,RIO NEGRO,RHN,Ativo
312,BARCELOS,14480002,1,14,00082 - CPRM - Cia de Pesquisa de Recursos Minerais,00001 - ANA - Agência Nacional de Águas ,BARCELOS-AM,-0.96580,-62.93110,0.00,14200000,RIO NEGRO,CotaOnline,Ativo
313,BARCELOS,14480002,1,14,00082 - CPRM - Cia de Pesquisa de Recursos Minerais,00001 - ANA - Agência Nacional de Águas ,BARCELOS-AM,-0.96580,-62.93110,0.00,14200000,RIO NEGRO,RHN,Ativo
314,UAICÁS,14488000,1,14,00082 - CPRM - Cia de Pesquisa de Recursos Minerais,00001 - ANA - Agência Nacional de Águas ,ALTO ALEGRE-RR,3.54970,-63.16920,0.00,14261000,RIO URARICOERA,RHN,Ativo
315,MARACÁ,14489000,1,14,00082 - CPRM - Cia de Pesquisa de Recursos Minerais,00001 - ANA - Agência Nacional de Águas ,ALTO ALEGRE-RR,3.35280,-61.42220,0.00,14261000,RIO URARICOERA,RHN,Ativo
316,FAZENDA CAJUPIRANGA,14495000,1,14,00082 - CPRM - Cia de Pesquisa de Recursos Minerais,00001 - ANA - Agência Nacional de Águas ,ALTO ALEGRE-RR,3.43810,-61.03670,0.00,14261000,RIO URARICOERA,RHN,Ativo
317,MOCIDADE,14500000,1,14,00082 - CPRM - Cia de Pesquisa de Recursos Minerais,00001 - ANA - Agência Nacional de Águas ,BOA VISTA-RR,3.46440,-60.90970,0.00,14261000,RIO URARICOERA,RHN,Ativo
318,FAZENDA PASSARÃO,14515000,1,14,00082 - CPRM - Cia de Pesquisa de Recursos Minerais,00001 - ANA - Agência Nacional de Águas ,BOA VISTA-RR,3.20780,-60.57110,0.00,14261000,RIO URARICOERA,RHN,Ativo
319,RIO MAÚ,14526400,1,14,00389 - FEMARH-RR - Fundação Estadual do Meio Ambiente e Recursos...,00389 - FEMARH-RR - Fundação Estadual do Meio Ambiente e Recursos...,UIRAMUTA-RR,4.57610,-60.13970,0.00,14263490,RIO MAÚ OU IRENG,RHN,Ativo
320,PONTE DO TACUTU,14527000,1,14,00082 - CPRM - Cia de Pesquisa de Recursos Minerais,00001 - ANA - Agência Nacional de Águas ,NORMÂNDIA-RR,3.56750,-59.88830,0.00,14263200,RIO TACUTU,RHN,Ativo
321,VILA SURUMU,14530000,1,14,00082 - CPRM - Cia de Pesquisa de Recursos Minerais,00001 - ANA - Agência Nacional de Águas ,PACARAIMA-RR,4.19610,-60.79390,0.00,14264000,RIO SURUMU,RHN,Ativo
322,FAZENDA BANDEIRA BRANCA,14540000,1,14,00082 - CPRM - Cia de Pesquisa de Recursos Minerais,00001 - ANA - Agência Nacional de Águas ,UIRAMUTA-RR,4.63060,-60.47060,0.00,14264200,RIO COTINGO,RHN,Ativo
323,FAZENDA PARAÍSO,14558000,1,14,00082 - CPRM - Cia de Pesquisa de Recursos Minerais,00001 - ANA - Agência Nacional de Águas ,BONFIM-RR,3.31780,-60.34470,0.00,14263200,RIO TACUTU,RHN,Ativo
324,BOA VISTA,14620000,1,14,00082 - CPRM - Cia de Pesquisa de Recursos Minerais,00001 - ANA - Agência Nacional de Águas ,BOA VISTA-RR,2.82670,-60.65610,0.00,14260000,RIO BRANCO,RHN,Ativo
325,FÉ E ESPERANÇA,14680001,1,14,00082 - CPRM - Cia de Pesquisa de Recursos Minerais,00001 - ANA - Agência Nacional de Águas ,MUCAJAÍ-RR,2.87080,-61.44060,0.00,14265400,RIO MUCAJAÍ,RHN,Ativo
326,MUCAJAÍ,14690000,1,14,00082 - CPRM - Cia de Pesquisa de Recursos Minerais,00001 - ANA - Agência Nacional de Águas ,MUCAJAÍ-RR,2.47140,-60.91780,0.00,14265400,RIO MUCAJAÍ,RHN,Ativo
327,CARACARAÍ,14710000,1,14,00082 - CPRM - Cia de Pesquisa de Recursos Minerais,00001 - ANA - Agência Nacional de Águas ,CARACARAÍ-RR,1.82140,-61.12360,0.00,14260000,RIO BRANCO,RHN,Ativo
328,SANTA MARIA DO BOIAÇU,14790000,1,14,00082 - CPRM - Cia de Pesquisa de Recursos Minerais,00001 - ANA - Agência Nacional de Águas ,RORAINÓPOLIS-RR,-0.50530,-61.78640,0.00,14260000,RIO BRANCO,RHN,Ativo
329,MOURA,14840000,1,14,00082 - CPRM - Cia de Pesquisa de Recursos Minerais,00001 - ANA - Agência Nacional de Águas ,BARCELOS-AM,-1.45670,-61.63470,0.00,14200000,RIO NEGRO,Inpe/Sivam(desativadas),Ativo
330,MOURA,14840000,1,14,00082 - CPRM - Cia de Pesquisa de Recursos Minerais,00001 - ANA - Agência Nacional de Águas ,BARCELOS-AM,-1.45670,-61.63470,0.00,14200000,RIO NEGRO,RHN,Ativo
331,BASE ALALAÚ,14850000,1,14,00082 - CPRM - Cia de Pesquisa de Recursos Minerais,00001 - ANA - Agência Nacional de Águas ,RORAINÓPOLIS-RR,-0.85860,-60.52000,59.00,14271200,RIO ALALAÚ,RHN,Ativo
332,NOVO AIRÃO,14900050,1,14,00082 - CPRM - Cia de Pesquisa de Recursos Minerais,00001 - ANA - Agência Nacional de Águas ,NOVO AIRÃO-AM,-2.62500,-60.93640,26.00,14200000,RIO NEGRO,Açudes Semiárido,Ativo
333,MANAUS,14990000,1,14,00082 - CPRM - Cia de Pesquisa de Recursos Minerais,00001 - ANA - Agência Nacional de Águas ,MANAUS-AM,-3.13830,-60.02720,0.00,14200000,RIO NEGRO,CotaOnline,Ativo
334,MANAUS,14990000,1,14,00082 - CPRM - Cia de Pesquisa de Recursos Minerais,00001 - ANA - Agência Nacional de Águas ,MANAUS-AM,-3.13830,-60.02720,0.00,14200000,RIO NEGRO,RHN,Ativo
335,JATUARANA,15030000,1,15,00082 - CPRM - Cia de Pesquisa de Recursos Minerais,00001 - ANA - Agência Nacional de Águas ,MANAUS-AM,-3.06330,-59.64780,0.00,10001000,RIO SOLIMÕES/AMAZONAS,RHN,Ativo
336,CAREIRO,15040000,1,15,00082 - CPRM - Cia de Pesquisa de Recursos Minerais,00001 - ANA - Agência Nacional de Águas ,CAREIRO DA VÁRZEA-AM,-3.19610,-59.83360,0.00,15100000,PARANA DO CAREIRO,CotaOnline,Ativo
337,CAREIRO,15040000,1,15,00082 - CPRM - Cia de Pesquisa de Recursos Minerais,00001 - ANA - Agência Nacional de Águas ,CAREIRO DA VÁRZEA-AM,-3.19610,-59.83360,0.00,15100000,PARANA DO CAREIRO,RHN,Ativo
338,UHE GUAPORÉ MONTANTE 1,15043000,1,15,00803 - CONS.GUAPORÉ - Consórcio UHE Guaporé,00803 - CONS.GUAPORÉ - Consórcio UHE Guaporé,JAURU-MT,-15.05940,-58.91060,485.00,15210000,RIO GUAPORÉ,Setor Elétrico,Ativo
339,UHE GUAPORÉ BARRAMENTO,15044000,1,15,00803 - CONS.GUAPORÉ - Consórcio UHE Guaporé,00803 - CONS.GUAPORÉ - Consórcio UHE Guaporé,PONTES E LACERDA-MT,-15.12360,-58.96220,305.00,15210000,RIO GUAPORÉ,Setor Elétrico,Ativo
340,UHE GUAPORÉ JUSANTE,15044100,1,15,00803 - CONS.GUAPORÉ - Consórcio UHE Guaporé,00803 - CONS.GUAPORÉ - Consórcio UHE Guaporé,PONTES E LACERDA-MT,-15.13810,-58.98250,306.00,15210000,RIO GUAPORÉ,Setor Elétrico,Ativo
341,PCH NOVA GUAPORÉ BARRAMENTO,15045950,1,15,01078 - GUAPORÉ - Nova Guaporé Energética S.A.,01078 - GUAPORÉ - Nova Guaporé Energética S.A.,PONTES E LACERDA-MT,-15.20720,-59.01420,307.00,15210000,RIO GUAPORÉ,Setor Elétrico,Ativo
342,PCH NOVA GUAPORÉ JUSANTE,15046000,1,15,01078 - GUAPORÉ - Nova Guaporé Energética S.A.,01078 - GUAPORÉ - Nova Guaporé Energética S.A.,PONTES E LACERDA-MT,-15.21080,-59.01190,270.00,15210000,RIO GUAPORÉ,Setor Elétrico,Ativo
343,UHE GUAPORÉ CÓRREGO PALMITAL,15046050,1,15,00803 - CONS.GUAPORÉ - Consórcio UHE Guaporé,00803 - CONS.GUAPORÉ - Consórcio UHE Guaporé,VALE DE SÃO DOMINGOS-MT,-15.22060,-59.00280,830.00,15211050,CÓRREGO PALMITAL,Setor Elétrico,Ativo
344,PONTES E LACERDA,15050001,1,15,00091 - SEMA-MT - SEMA-MT,00091 - SEMA-MT - SEMA-MT,PONTES E LACERDA-MT,-15.21530,-59.35390,0.00,15210000,RIO GUAPORÉ,RHN,Ativo
345,PCH SALTO CORGÃO BARRAMENTO,15120500,1,15,00315 - GACEL - Galera Centrais Elétricas S.A-GACEL,00315 - GACEL - Galera Centrais Elétricas S.A-GACEL,NOVA LACERDA-MT,-14.44780,-59.48470,550.00,15213900,RIO CORGÃO,Setor Elétrico,Ativo
346,PCH SALTO CORGÃO JUSANTE,15121000,1,15,00315 - GACEL - Galera Centrais Elétricas S.A-GACEL,00315 - GACEL - Galera Centrais Elétricas S.A-GACEL,NOVA LACERDA-MT,-14.45750,-59.50860,0.00,15213900,RIO CORGÃO,Setor Elétrico,Ativo
347,PCH RIO PRATA JUSANTE,15122000,1,15,00703 - HIDREL COMODORO - Hidrelétrica Comodoro Ltda.,00703 - HIDREL COMODORO - Hidrelétrica Comodoro Ltda.,COMODORO-MT,-13.63000,-59.87610,463.00,15215900,RIO PRATA,Setor Elétrico,Ativo
348,PCH ESPERANÇA JUSANTE,15123000,1,15,00551 - ÁGUASCLARAS - Hidrelétrica Águas Claras Ltda.,00551 - ÁGUASCLARAS - Hidrelétrica Águas Claras Ltda.,COMODORO-MT,-13.78220,-59.79220,469.00,15216020,RIO PIOLHINHO,Setor Elétrico,Ativo
349,PCH CABIXI II BARRAMENTO,15123080,1,15,00686 - CASSOL - Cassol Centrais Elétricas Ltda.,00686 - CASSOL - Cassol Centrais Elétricas Ltda.,COMODORO-MT,-13.02060,-60.11140,508.00,15215500,RIO LAMBARI,Setor Elétrico,Ativo
350,PCH CABIXI II JUSANTE,15123100,1,15,00686 - CASSOL - Cassol Centrais Elétricas Ltda.,00686 - CASSOL - Cassol Centrais Elétricas Ltda.,COMODORO-MT,-13.02030,-60.13500,355.00,15215500,RIO LAMBARI,Setor Elétrico,Ativo
351,PCH CABIXI BARRAMENTO,15123200,1,15,00686 - CASSOL - Cassol Centrais Elétricas Ltda.,00686 - CASSOL - Cassol Centrais Elétricas Ltda.,VILHENA-RO,-12.95750,-60.13470,491.00,15216000,RIO CABIXI ou BRANCO,Setor Elétrico,Ativo
352,PCH CABIXI JUSANTE,15123500,1,15,00686 - CASSOL - Cassol Centrais Elétricas Ltda.,00686 - CASSOL - Cassol Centrais Elétricas Ltda.,VILHENA-RO,-12.96330,-60.14920,351.00,15216000,RIO CABIXI ou BRANCO,Setor Elétrico,Ativo
353,CABIXI,15124009,1,15,00082 - CPRM - Cia de Pesquisa de Recursos Minerais,00001 - ANA - Agência Nacional de Águas ,CABIXI-RO,-13.51250,-60.53000,0.00,15216000,RIO CABIXI ou BRANCO,RHN,Ativo
354,CGH RIO VERMELHO BARRAMENTO,15125010,1,15,01285 - ENERGIA - Energisa Geração - Usina Mauricio S.A.,01285 - ENERGIA - Energisa Geração - Usina Mauricio S.A.,VILHENA-RO,-12.89670,-60.19560,387.00,15216010,RIO VERMELHO,Setor Elétrico,Ativo
355,CGH RIO VERMELHO JUSANTE,15125020,1,15,01285 - ENERGIA - Energisa Geração - Usina Mauricio S.A.,01285 - ENERGIA - Energisa Geração - Usina Mauricio S.A.,VILHENA-RO,-12.90080,-60.19780,313.00,15216010,RIO VERMELHO,Setor Elétrico,Ativo
356,CGH RIO ENGANADO (CASTAMAN I) BARRAMENTO,15128500,1,15,00687 - RIO ENGANADO - Hidrelétrica Rio Enganado Ltda.,00687 - RIO ENGANADO - Hidrelétrica Rio Enganado Ltda.,COLORADO DO OESTE-RO,-13.07940,-60.62190,427.00,15216030,RIO ENGANADO,Setor Elétrico,Ativo
357,CGH RIO ENGANADO (CASTAMAN I) JUSANTE,15128800,1,15,00687 - RIO ENGANADO - Hidrelétrica Rio Enganado Ltda.,00687 - RIO ENGANADO - Hidrelétrica Rio Enganado Ltda.,COLORADO DO OESTE-RO,-13.09000,-60.62190,349.00,15216030,RIO ENGANADO,Setor Elétrico,Ativo
358,CGH CASTAMAN III BARRAMENTO,15128950,1,15,00159 - MARGARIDA - Hidrelétrica Margarida Ltda.,00159 - MARGARIDA - Hidrelétrica Margarida Ltda.,COLORADO DO OESTE-RO,-13.13720,-60.64000,302.00,15216030,RIO ENGANADO,Setor Elétrico,Ativo
359,CGH CASTAMAN III JUSANTE,15129000,1,15,00159 - MARGARIDA - Hidrelétrica Margarida Ltda.,00159 - MARGARIDA - Hidrelétrica Margarida Ltda.,COLORADO DO OESTE-RO,-13.15220,-60.65690,268.00,15216030,RIO ENGANADO,Setor Elétrico,Ativo
360,PIMENTEIRAS,15130000,1,15,00082 - CPRM - Cia de Pesquisa de Recursos Minerais,00001 - ANA - Agência Nacional de Águas ,PIMENTEIRAS DO OESTE-RO,-13.48580,-61.05000,0.00,15210000,RIO GUAPORÉ,RHN,Ativo
361,CGH SANTA LUZIA D''OESTE RIO BRANCO,15138000,1,15,00559 - BERGAMIN - Hidroelétrica Bergamin Ltda.,00559 - BERGAMIN - Hidroelétrica Bergamin Ltda.,ALTO ALEGRE DOS PARECIS-RO,-12.38420,-61.71060,406.00,15216300,RIO BRANCO,Setor Elétrico,Ativo
362,CGH SANTA LUZIA D''OESTE MONTANTE,15143000,1,15,00559 - BERGAMIN - Hidroelétrica Bergamin Ltda.,00559 - BERGAMIN - Hidroelétrica Bergamin Ltda.,ALTO ALEGRE DOS PARECIS-RO,-12.38000,-61.74970,367.00,15216250,RIO COLORADO,Setor Elétrico,Ativo
363,CGH SANTA LUZIA D''OESTE JUSANTE,15145000,1,15,00559 - BERGAMIN - Hidroelétrica Bergamin Ltda.,00559 - BERGAMIN - Hidroelétrica Bergamin Ltda.,ALTO ALEGRE DOS PARECIS-RO,-12.34560,-61.76970,212.00,15216250,RIO COLORADO,Setor Elétrico,Ativo
364,PEDRAS NEGRAS,15150000,1,15,00082 - CPRM - Cia de Pesquisa de Recursos Minerais,00001 - ANA - Agência Nacional de Águas ,COSTA MARQUES-RO,-12.85140,-62.89920,152.00,15210000,RIO GUAPORÉ,RHN,Ativo
365,CGH ALTOÉ II BARRAMENTO,15150300,1,15,00225 - ALTOÉ - Hidroelétrica Altoé Ltda.,00225 - ALTOÉ - Hidroelétrica Altoé Ltda.,CEREJEIRAS-RO,-12.55080,-61.53000,403.00,15240598,RIO SÃO JOÃO,Setor Elétrico,Ativo
366,CGH ALTOÉ II JUSANTE,15150500,1,15,00225 - ALTOÉ - Hidroelétrica Altoé Ltda.,00225 - ALTOÉ - Hidroelétrica Altoé Ltda.,PARECIS-RO,-12.58140,-61.52420,210.00,15240598,RIO SÃO JOÃO,Setor Elétrico,Ativo
367,PCH ALTA FLORESTA MONTANTE 2,15150800,1,15,00233 - ELETRON - Eletricidade de Rondônia Ltda-ELETRON,00233 - ELETRON - Eletricidade de Rondônia Ltda-ELETRON,ALTA FLORESTA D''OESTE-RO,-11.96890,-61.99080,331.00,15216300,RIO BRANCO,Setor Elétrico,Ativo
368,PCH ALTA FLORESTA MONTANTE 1,15151000,1,15,00233 - ELETRON - Eletricidade de Rondônia Ltda-ELETRON,00233 - ELETRON - Eletricidade de Rondônia Ltda-ELETRON,ALTA FLORESTA D''OESTE-RO,-11.95310,-62.01250,316.00,15216300,RIO BRANCO,Setor Elétrico,Ativo
369,PCH ALTA FLORESTA BARRAMENTO,15151500,1,15,00233 - ELETRON - Eletricidade de Rondônia Ltda-ELETRON,00233 - ELETRON - Eletricidade de Rondônia Ltda-ELETRON,ALTA FLORESTA D''OESTE-RO,-11.93830,-62.04030,316.00,15216300,RIO BRANCO,Setor Elétrico,Ativo
370,PCH ÂNGELO CASSOL BARRAMENTO,15152000,1,15,00768 - ÂNGELO CASSOL - Hidroelétrica Ângelo Cassol Ltda.,00768 - ÂNGELO CASSOL - Hidroelétrica Ângelo Cassol Ltda.,ALTA FLORESTA D''OESTE-RO,-11.93080,-62.10360,275.00,15216300,RIO BRANCO,Setor Elétrico,Ativo
371,PCH ÂNGELO CASSOL JUSANTE,15152500,1,15,00768 - ÂNGELO CASSOL - Hidroelétrica Ângelo Cassol Ltda.,00768 - ÂNGELO CASSOL - Hidroelétrica Ângelo Cassol Ltda.,ALTA FLORESTA D''OESTE-RO,-11.92940,-62.10810,278.00,15216300,RIO BRANCO,Setor Elétrico,Ativo
372,PCH CACHOEIRA CACHIMBO ALTO BARRAMENTO,15169000,1,15,00769 - CACHIMBO ALTO - Hidroelétrica Cachimbo Alto Ltda.,00769 - CACHIMBO ALTO - Hidroelétrica Cachimbo Alto Ltda.,ALTA FLORESTA D''OESTE-RO,-11.92530,-62.14670,254.00,15216300,RIO BRANCO,Setor Elétrico,Ativo
373,PCH CACHOEIRA CACHIMBO ALTO JUSANTE,15170200,1,15,00769 - CACHIMBO ALTO - Hidroelétrica Cachimbo Alto Ltda.,00769 - CACHIMBO ALTO - Hidroelétrica Cachimbo Alto Ltda.,ALTA FLORESTA D''OESTE-RO,-11.92720,-62.15470,238.00,15216300,RIO BRANCO,Setor Elétrico,Ativo
374,PCH RIO BRANCO BARRAMENTO,15170600,1,15,00564 - HIDROSSOL - Hidrossol Hidroelétricas Cassol Ltda.,00564 - HIDROSSOL - Hidrossol Hidroelétricas Cassol Ltda.,ALTA FLORESTA D''OESTE-RO,-11.91110,-62.18110,214.00,15216300,RIO BRANCO,Setor Elétrico,Ativo
375,PCH RIO BRANCO JUSANTE,15170700,1,15,00564 - HIDROSSOL - Hidrossol Hidroelétricas Cassol Ltda.,00564 - HIDROSSOL - Hidrossol Hidroelétricas Cassol Ltda.,ALTA FLORESTA D''OESTE-RO,-11.90610,-62.18420,204.00,15216300,RIO BRANCO,Setor Elétrico,Ativo
376,PCH FIGUEIRA MONTANTE,15170900,1,15,00306 - PCH FIGUEIRA - Consórcio PCH Figueira,00306 - PCH FIGUEIRA - Consórcio PCH Figueira,ALTA FLORESTA D''OESTE-RO,-12.05220,-62.17030,392.00,15216500,RIO SALDANHA,Setor Elétrico,Ativo
377,PCH FIGUEIRA BARRAMENTO,15171000,1,15,00306 - PCH FIGUEIRA - Consórcio PCH Figueira,00306 - PCH FIGUEIRA - Consórcio PCH Figueira,ALTA FLORESTA D''OESTE-RO,-11.99580,-62.17170,384.00,15216500,RIO SALDANHA,Setor Elétrico,Ativo
378,PCH FIGUEIRA JUSANTE,15171050,1,15,00306 - PCH FIGUEIRA - Consórcio PCH Figueira,00306 - PCH FIGUEIRA - Consórcio PCH Figueira,ALTA FLORESTA D''OESTE-RO,-11.98750,-62.17640,372.00,15216500,RIO SALDANHA,Setor Elétrico,Ativo
379,PCH SALDANHA JUSANTE,15171100,1,15,01109 - HIDROLUZ - Hidroluz Centrais Elétricas Ltda.,01109 - HIDROLUZ - Hidroluz Centrais Elétricas Ltda.,ALTA FLORESTA D''OESTE-RO,-11.95610,-62.18060,311.00,15216500,RIO SALDANHA,Setor Elétrico,Ativo
380,PCH MONTE BELO BARRAMENTO,15171800,1,15,00307 - ELETROSSOL - Centrais Elétricas Cassol  Ltda.-ELETROSSOL,00307 - ELETROSSOL - Centrais Elétricas Cassol  Ltda.-ELETROSSOL,ALTA FLORESTA D''OESTE-RO,-11.93360,-62.17920,292.00,15216500,RIO SALDANHA,Setor Elétrico,Ativo
381,PCH MONTE BELO JUSANTE,15172000,1,15,00307 - ELETROSSOL - Centrais Elétricas Cassol  Ltda.-ELETROSSOL,00307 - ELETROSSOL - Centrais Elétricas Cassol  Ltda.-ELETROSSOL,ALTA FLORESTA D''OESTE-RO,-11.92750,-62.18360,246.00,15216500,RIO SALDANHA,Setor Elétrico,Ativo
382,PRINCIPE DA BEIRA,15200000,1,15,00082 - CPRM - Cia de Pesquisa de Recursos Minerais,00001 - ANA - Agência Nacional de Águas ,COSTA MARQUES-RO,-12.42670,-64.42530,0.00,15210000,RIO GUAPORÉ,RHN,Ativo
383,UHE JIRAU PRÍNCIPE DA BEIRA,15200010,1,15,00342 - JIRAU - Jirau Energia S.A.,00342 - JIRAU - Jirau Energia S.A.,COSTA MARQUES-RO,-12.42670,-64.42530,210.00,15210000,RIO GUAPORÉ,Setor Elétrico,Ativo
384,BOCA DO POMPEU - JUSANTE,15248010,1,15,00082 - CPRM - Cia de Pesquisa de Recursos Minerais,00001 - ANA - Agência Nacional de Águas ,GUAJARÁ-MIRIM-RO,-10.91750,-65.04330,0.00,15221400,RIO OURO PRETO,RHN,Ativo
385,GUAJARÁ-MIRIM,15250000,1,15,00082 - CPRM - Cia de Pesquisa de Recursos Minerais,00001 - ANA - Agência Nacional de Águas ,GUAJARÁ-MIRIM-RO,-10.79250,-65.34780,109.00,15201000,RIO MAMORÉ,RHN,Ativo
386,GUAJARÁ-MIRIM,15250000,1,15,00082 - CPRM - Cia de Pesquisa de Recursos Minerais,00001 - ANA - Agência Nacional de Águas ,GUAJARÁ-MIRIM-RO,-10.79250,-65.34780,109.00,15201000,RIO MAMORÉ,CotaOnline,Ativo
387,UHE JIRAU GUAJARÁ-MIRIM,15250001,1,15,00342 - JIRAU - Jirau Energia S.A.,00342 - JIRAU - Jirau Energia S.A.,GUAJARÁ-MIRIM-RO,-10.72610,-65.34780,147.00,15201000,RIO MAMORÉ,Setor Elétrico,Ativo
388,SALVACION,15307000,1,15,00906 - SENAMHI-PERU - SENAMHI-PERU,00906 - SENAMHI-PERU - SENAMHI-PERU,PERU-PU,-12.83330,-71.50000,520.00,15200100,RIO MADRE DE DIOS,RHN,Ativo
389,PAKITZA,15308000,1,15,00906 - SENAMHI-PERU - SENAMHI-PERU,00906 - SENAMHI-PERU - SENAMHI-PERU,PERU-PU,-11.95000,-71.28330,319.00,15200100,RIO MADRE DE DIOS,RHN,Ativo
390,UHE JIRAU JUSANTE RIO BENI,15318000,1,15,00342 - JIRAU - Jirau Energia S.A.,00342 - JIRAU - Jirau Energia S.A.,NOVA MAMORE-RO,-10.35690,-65.36140,130.00,15200000,RIO MADEIRA,Setor Elétrico,Ativo
391,ABUNÃ,15320002,1,15,00082 - CPRM - Cia de Pesquisa de Recursos Minerais,00001 - ANA - Agência Nacional de Águas ,PORTO VELHO-RO,-9.70530,-65.36670,74.65,15200000,RIO MADEIRA,RHN,Ativo
392,ABUNÃ,15320002,1,15,00082 - CPRM - Cia de Pesquisa de Recursos Minerais,00001 - ANA - Agência Nacional de Águas ,PORTO VELHO-RO,-9.70530,-65.36670,74.65,15200000,RIO MADEIRA,CotaOnline,Ativo
393,PLÁCIDO DE CASTRO,15324000,1,15,00082 - CPRM - Cia de Pesquisa de Recursos Minerais,00001 - ANA - Agência Nacional de Águas ,PLÁCIDO DE CASTRO-AC,-10.33780,-67.18310,0.00,15223000,RIO ABUNÃ,RHN,Ativo
394,UHE JIRAU NOVA CALIFORNIA,15324500,1,15,00342 - JIRAU - Jirau Energia S.A.,00342 - JIRAU - Jirau Energia S.A.,PORTO VELHO-RO,-9.89360,-66.61860,115.00,15223000,RIO ABUNÃ,Setor Elétrico,Ativo
395,MORADA NOVA - JUSANTE,15326000,1,15,00082 - CPRM - Cia de Pesquisa de Recursos Minerais,00001 - ANA - Agência Nacional de Águas ,PORTO VELHO-RO,-9.78470,-65.52750,0.00,15223000,RIO ABUNÃ,CotaOnline,Ativo
396,MORADA NOVA - JUSANTE,15326000,1,15,00082 - CPRM - Cia de Pesquisa de Recursos Minerais,00001 - ANA - Agência Nacional de Águas ,PORTO VELHO-RO,-9.78470,-65.52750,0.00,15223000,RIO ABUNÃ,RHN,Ativo
397,UHE JIRAU MORADA NOVA JUSANTE,15326010,1,15,00342 - JIRAU - Jirau Energia S.A.,00342 - JIRAU - Jirau Energia S.A.,PORTO VELHO-RO,-9.78470,-65.52750,110.00,15223000,RIO ABUNÃ,Setor Elétrico,Ativo
398,UHE JIRAU VELHA MUTUM-PARANÁ,15335000,1,15,00342 - JIRAU - Jirau Energia S.A.,00342 - JIRAU - Jirau Energia S.A.,PORTO VELHO-RO,-9.61750,-64.93310,92.38,15224100,RIO MUTUM-PARANA,Setor Elétrico,Ativo
399,UHE JIRAU RESERVATÓRIO,15340300,1,15,00342 - JIRAU - Jirau Energia S.A.,00342 - JIRAU - Jirau Energia S.A.,PORTO VELHO-RO,-9.28280,-64.67280,0.00,15200000,RIO MADEIRA,Setor Elétrico,Ativo
400,UHE JIRAU BARRAMENTO,15340500,1,15,00342 - JIRAU - Jirau Energia S.A.,00342 - JIRAU - Jirau Energia S.A.,PORTO VELHO-RO,-9.25030,-64.64830,69.00,15200000,RIO MADEIRA,Setor Elétrico,Ativo
401,UHE JIRAU PORTO R4,15340600,1,15,00342 - JIRAU - Jirau Energia S.A.,00342 - JIRAU - Jirau Energia S.A.,PORTO VELHO-RO,-9.24860,-64.62640,74.00,15200000,RIO MADEIRA,Setor Elétrico,Ativo
402,UHE SANTO ANTÔNIO JUSANTE CALDEIRÃO DO INFERNO,15341000,1,15,00354 - SANTO ANTÔNIO - Santo Antônio Energia S.A,00354 - SANTO ANTÔNIO - Santo Antônio Energia S.A,PORTO VELHO-RO,-9.20280,-64.60860,73.75,15200000,RIO MADEIRA,Setor Elétrico,Ativo
403,UHE SANTO ANTÔNIO MONTANTE JACIPARANÁ,15344000,1,15,00354 - SANTO ANTÔNIO - Santo Antônio Energia S.A,00354 - SANTO ANTÔNIO - Santo Antônio Energia S.A,PORTO VELHO-RO,-9.50110,-64.38170,77.90,15240200,RIO JACIPARANÁ,Setor Elétrico,Ativo
404,UHE SANTO ANTÔNIO JACIPARANÁ VILA,15345900,1,15,00354 - SANTO ANTÔNIO - Santo Antônio Energia S.A,00354 - SANTO ANTÔNIO - Santo Antônio Energia S.A,PORTO VELHO-RO,-9.26170,-64.40140,73.24,15240200,RIO JACIPARANÁ,Setor Elétrico,Ativo
405,UHE SANTO ANTÔNIO RESERVATÓRIO,15350500,1,15,00354 - SANTO ANTÔNIO - Santo Antônio Energia S.A,00354 - SANTO ANTÔNIO - Santo Antônio Energia S.A,PORTO VELHO-RO,-8.84190,-63.99500,0.00,15200000,RIO MADEIRA,Setor Elétrico,Ativo
406,UHE SANTO ANTÔNIO MONTANTE,15360000,1,15,00354 - SANTO ANTÔNIO - Santo Antônio Energia S.A,00354 - SANTO ANTÔNIO - Santo Antônio Energia S.A,PORTO VELHO-RO,-8.79670,-63.95830,0.00,15200000,RIO MADEIRA,Setor Elétrico,Ativo
407,UHE SANTO ANTÔNIO JUSANTE R-7,15380000,1,15,00354 - SANTO ANTÔNIO - Santo Antônio Energia S.A,00354 - SANTO ANTÔNIO - Santo Antônio Energia S.A,PORTO VELHO-RO,-8.78220,-63.93030,60.68,15200000,RIO MADEIRA,Setor Elétrico,Ativo
408,UHE SANTO ANTÔNIO PORTO VELHO,15390000,1,15,00354 - SANTO ANTÔNIO - Santo Antônio Energia S.A,00354 - SANTO ANTÔNIO - Santo Antônio Energia S.A,PORTO VELHO-RO,-8.74810,-63.91580,63.66,15200000,RIO MADEIRA,Setor Elétrico,Ativo
409,PORTO VELHO,15400000,1,15,00082 - CPRM - Cia de Pesquisa de Recursos Minerais,00001 - ANA - Agência Nacional de Águas ,PORTO VELHO-RO,-8.74830,-63.91690,42.88,15200000,RIO MADEIRA,CotaOnline,Ativo
410,PORTO VELHO,15400000,1,15,00082 - CPRM - Cia de Pesquisa de Recursos Minerais,00001 - ANA - Agência Nacional de Águas ,PORTO VELHO-RO,-8.74830,-63.91690,42.88,15200000,RIO MADEIRA,RHN,Ativo
411,PCH SANTA CRUZ DE MONTE NEGRO MONTANTE 2,15405000,1,15,00362 - CANAÃ - Canaã Geração de Energia S.A.,00362 - CANAÃ - Canaã Geração de Energia S.A.,MONTE NEGRO-RO,-10.47190,-63.25940,146.00,15230100,IGARAPÉ NOVA FLORESTA,Setor Elétrico,Ativo
412,PCH SANTA CRUZ DE MONTE NEGRO MONTANTE 1,15406000,1,15,00362 - CANAÃ - Canaã Geração de Energia S.A.,00362 - CANAÃ - Canaã Geração de Energia S.A.,MONTE NEGRO-RO,-10.43750,-63.23580,144.00,15230000,RIO JAMARI,Setor Elétrico,Ativo
413,PCH SANTA CRUZ DE MONTE NEGRO BARRAMENTO,15408600,1,15,00362 - CANAÃ - Canaã Geração de Energia S.A.,00362 - CANAÃ - Canaã Geração de Energia S.A.,MONTE NEGRO-RO,-10.23030,-63.23110,128.00,15230000,RIO JAMARI,Setor Elétrico,Ativo
414,PCH SANTA CRUZ DE MONTE NEGRO JUSANTE,15408700,1,15,00362 - CANAÃ - Canaã Geração de Energia S.A.,00362 - CANAÃ - Canaã Geração de Energia S.A.,MONTE NEGRO-RO,-10.20560,-63.11140,117.00,15230000,RIO JAMARI,Setor Elétrico,Ativo
415,PCH CANAÃ MONTANTE 2,15413000,1,15,00362 - CANAÃ - Canaã Geração de Energia S.A.,00362 - CANAÃ - Canaã Geração de Energia S.A.,ARIQUEMES-RO,-10.25420,-62.98940,134.00,15230700,RIO PARDO OU URURAM,Setor Elétrico,Ativo
416,PCH JAMARI RIO CANAÃ,15413100,1,15,00362 - CANAÃ - Canaã Geração de Energia S.A.,00362 - CANAÃ - Canaã Geração de Energia S.A.,ARIQUEMES-RO,-10.20500,-63.11110,114.00,15230050,RIO CANAÃ,Setor Elétrico,Ativo
417,PCH CANAÃ MONTANTE 1,15414000,1,15,00362 - CANAÃ - Canaã Geração de Energia S.A.,00362 - CANAÃ - Canaã Geração de Energia S.A.,ARIQUEMES-RO,-10.08310,-62.99750,117.00,15230710,RIO QUATRO CACHOEIRAS,Setor Elétrico,Ativo
418,PCH CANAÃ BARRAMENTO,15417980,1,15,00362 - CANAÃ - Canaã Geração de Energia S.A.,00362 - CANAÃ - Canaã Geração de Energia S.A.,ARIQUEMES-RO,-10.01940,-63.06060,115.00,15230050,RIO CANAÃ,Setor Elétrico,Ativo
419,PCH CANAÃ JUSANTE,15418000,1,15,00362 - CANAÃ - Canaã Geração de Energia S.A.,00362 - CANAÃ - Canaã Geração de Energia S.A.,ARIQUEMES-RO,-10.01830,-63.06220,108.00,15230050,RIO CANAÃ,Setor Elétrico,Ativo
420,PCH JAMARI BARRAMENTO,15423980,1,15,00362 - CANAÃ - Canaã Geração de Energia S.A.,00362 - CANAÃ - Canaã Geração de Energia S.A.,ARIQUEMES-RO,-9.93810,-63.07720,112.00,15230000,RIO JAMARI,Setor Elétrico,Ativo
421,PCH JAMARI JUSANTE 1,15424000,1,15,00362 - CANAÃ - Canaã Geração de Energia S.A.,00362 - CANAÃ - Canaã Geração de Energia S.A.,ARIQUEMES-RO,-9.93470,-63.07560,111.00,15230000,RIO JAMARI,Setor Elétrico,Ativo
422,ARIQUEMES,15430000,1,15,00082 - CPRM - Cia de Pesquisa de Recursos Minerais,00001 - ANA - Agência Nacional de Águas ,ARIQUEMES-RO,-9.92560,-63.07140,87.67,15230000,RIO JAMARI,RHN,Ativo
423,ARIQUEMES,15430000,1,15,00082 - CPRM - Cia de Pesquisa de Recursos Minerais,00001 - ANA - Agência Nacional de Águas ,ARIQUEMES-RO,-9.92560,-63.07140,87.67,15230000,RIO JAMARI,CotaOnline,Ativo
424,UHE SAMUEL RIO BRANCO,15430900,1,15,00075 - ELETRONORTE - ELETRONORTE,00075 - ELETRONORTE - ELETRONORTE,ARIQUEMES-RO,-9.88670,-62.98470,0.00,15227700,RIO BRANCO,Setor Elétrico,Ativo
425,UHE SAMUEL RIO MASSANGANA,15431900,1,15,00075 - ELETRONORTE - ELETRONORTE,00075 - ELETRONORTE - ELETRONORTE,ALTO PARAÍSO-RO,-9.76030,-63.28810,0.00,15230900,RIO MASSANGANA,Setor Elétrico,Ativo
426,PCH JAMARI JUSANTE 2,15444000,1,15,00362 - CANAÃ - Canaã Geração de Energia S.A.,00362 - CANAÃ - Canaã Geração de Energia S.A.,ALTO PARAÍSO-RO,-9.66530,-63.13610,96.00,15230000,RIO JAMARI,Setor Elétrico,Ativo
427,UHE SAMUEL RIO PRETO DO CRESPO,15444900,1,15,00075 - ELETRONORTE - ELETRONORTE,00075 - ELETRONORTE - ELETRONORTE,RIO CRESPO-RO,-9.55640,-62.95060,0.00,15231100,RIO PRETO DO CRESPO,Setor Elétrico,Ativo
428,UHE SAMUEL BARRAMENTO,15459080,1,15,00075 - ELETRONORTE - ELETRONORTE,00075 - ELETRONORTE - ELETRONORTE,CANDÉIAS DO JAMARI-RO,-8.75250,-63.45500,0.00,15230000,RIO JAMARI,Setor Elétrico,Ativo
429,UHE SAMUEL JUSANTE,15459090,1,15,00075 - ELETRONORTE - ELETRONORTE,00075 - ELETRONORTE - ELETRONORTE,CANDÉIAS DO JAMARI-RO,-8.74690,-63.46360,0.00,15230000,RIO JAMARI,Setor Elétrico,Ativo
430,PROSPERIDADE (EX. FOZ DO JAMARI),15490000,1,15,00082 - CPRM - Cia de Pesquisa de Recursos Minerais,00001 - ANA - Agência Nacional de Águas ,PORTO VELHO-RO,-8.45220,-63.51780,40.00,15200000,RIO MADEIRA,RHN,Ativo
431,SÃO CARLOS,15490200,1,15,00003 - DNIT - DNIT,00003 - DNIT - DNIT,PORTO VELHO-RO,-8.42580,-63.48360,38.00,15200000,RIO MADEIRA,RHN,Ativo
432,UHE SANTO ANTÔNIO SÃO CARLOS,15490400,1,15,00354 - SANTO ANTÔNIO - Santo Antônio Energia S.A,00354 - SANTO ANTÔNIO - Santo Antônio Energia S.A,PORTO VELHO-RO,-8.44440,-63.50810,55.96,15200000,RIO MADEIRA,Setor Elétrico,Ativo
433,PORTO VELHO,15490600,1,15,00003 - DNIT - DNIT,00003 - DNIT - DNIT,PORTO VELHO-RO,-8.58440,-63.73310,41.00,15200000,RIO MADEIRA,RHN,Ativo
434,SANTA ISABEL,15550000,1,15,00082 - CPRM - Cia de Pesquisa de Recursos Minerais,00001 - ANA - Agência Nacional de Águas ,CANDÉIAS DO JAMARI-RO,-8.79860,-63.71060,0.00,15232000,RIO CANDEIAS,RHN,Ativo
435,PCH CACHOEIRA MONTANTE,15552005,1,15,00351 - JFG - JFG Energia S.A,00351 - JFG - JFG Energia S.A,VILHENA-RO,-12.50560,-60.47190,404.73,15240307,RIO AVILA,Setor Elétrico,Ativo
436,PCH CACHOEIRA BARRAMENTO,15552008,1,15,00351 - JFG - JFG Energia S.A,00351 - JFG - JFG Energia S.A,VILHENA-RO,-12.50420,-60.47140,405.00,15240307,RIO AVILA,Setor Elétrico,Ativo
437,UHE RONDON II MONTANTE 2,15552540,1,15,00158 - ELETROGOES S/A - Eletrogoes S.A,00158 - ELETROGOES S/A - Eletrogoes S.A,PIMENTA BUENO-RO,-12.39080,-60.48810,291.50,15240400,RIO COMEMORAÇÃO,Setor Elétrico,Ativo
438,UHE RONDON II MONTANTE 1,15552560,1,15,00158 - ELETROGOES S/A - Eletrogoes S.A,00158 - ELETROGOES S/A - Eletrogoes S.A,PIMENTA BUENO-RO,-12.18530,-60.59970,272.39,15240400,RIO COMEMORAÇÃO,Setor Elétrico,Ativo
439,UHE RONDON II RESERVATÓRIO,15552565,1,15,00158 - ELETROGOES S/A - Eletrogoes S.A,00158 - ELETROGOES S/A - Eletrogoes S.A,PIMENTA BUENO-RO,-12.00420,-60.68390,269.00,15240400,RIO COMEMORAÇÃO,Setor Elétrico,Ativo
440,UHE RONDON II BARRAMENTO,15552570,1,15,00158 - ELETROGOES S/A - Eletrogoes S.A,00158 - ELETROGOES S/A - Eletrogoes S.A,PIMENTA BUENO-RO,-11.99530,-60.69690,272.92,15240400,RIO COMEMORAÇÃO,Setor Elétrico,Ativo
441,UHE RONDON II JUSANTE,15552580,1,15,00158 - ELETROGOES S/A - Eletrogoes S.A,00158 - ELETROGOES S/A - Eletrogoes S.A,PIMENTA BUENO-RO,-11.95920,-60.70220,211.09,15240400,RIO COMEMORAÇÃO,Setor Elétrico,Ativo
442,FAZENDA FLOR DO CAMPO,15552600,1,15,00082 - CPRM - Cia de Pesquisa de Recursos Minerais,00001 - ANA - Agência Nacional de Águas ,PIMENTA BUENO-RO,-11.74890,-60.86780,185.00,15240400,RIO COMEMORAÇÃO,RHN,Ativo
443,CGH MARCOL BARRAMENTO,15552800,1,15,00587 - MARCOL - Madeireira Rio Colorado Ltda.-MARCOL,00587 - MARCOL - Madeireira Rio Colorado Ltda.-MARCOL,VILHENA-RO,-12.85390,-60.32920,289.00,15240310,RIO APEDIA  ou PIMENTA BUENO,Setor Elétrico,Ativo
444,CGH MARCOL JUSANTE,15552900,1,15,00587 - MARCOL - Madeireira Rio Colorado Ltda.-MARCOL,00587 - MARCOL - Madeireira Rio Colorado Ltda.-MARCOL,VILHENA-RO,-12.85500,-60.33030,373.00,15240310,RIO APEDIA  ou PIMENTA BUENO,Setor Elétrico,Ativo
445,PCH CASCATA CHUPINGUAIA MONTANTE,15553100,1,15,00561 - CHUPINGUAIA - Hidroelétrica Chupinguaia Ltda.,00561 - CHUPINGUAIA - Hidroelétrica Chupinguaia Ltda.,CHUPINGUAIA-RO,-12.75610,-60.80830,288.00,15240310,RIO APEDIA  ou PIMENTA BUENO,Setor Elétrico,Ativo
446,PCH CASCATA CHUPINGUAIA BARRAMENTO,15553150,1,15,00561 - CHUPINGUAIA - Hidroelétrica Chupinguaia Ltda.,00561 - CHUPINGUAIA - Hidroelétrica Chupinguaia Ltda.,CHUPINGUAIA-RO,-12.70280,-60.88310,258.00,15240310,RIO APEDIA  ou PIMENTA BUENO,Setor Elétrico,Ativo
447,PCH CASCATA CHUPINGUAIA CÂMARA DE CARGA,15553160,1,15,00561 - CHUPINGUAIA - Hidroelétrica Chupinguaia Ltda.,00561 - CHUPINGUAIA - Hidroelétrica Chupinguaia Ltda.,CHUPINGUAIA-RO,-12.69280,-60.88080,265.00,15240310,RIO APEDIA  ou PIMENTA BUENO,Setor Elétrico,Ativo
448,PCH CASCATA CHUPINGUAIA JUSANTE,15553180,1,15,00561 - CHUPINGUAIA - Hidroelétrica Chupinguaia Ltda.,00561 - CHUPINGUAIA - Hidroelétrica Chupinguaia Ltda.,CHUPINGUAIA-RO,-12.69000,-60.88310,269.00,15240310,RIO APEDIA  ou PIMENTA BUENO,Setor Elétrico,Ativo
449,PCH CHUPINGUAIA MONTANTE,15553200,1,15,00668 - USINACACHOEIRA - Usina Hidrelétrica Cachoeira Ltda.,00668 - USINACACHOEIRA - Usina Hidrelétrica Cachoeira Ltda.,CHUPINGUAIA-RO,-12.59500,-60.88310,300.19,15240312,RIO CHUPINGUAIA,Setor Elétrico,Ativo
450,PCH CHUPINGUAIA BARRAMENTO,15553300,1,15,00668 - USINACACHOEIRA - Usina Hidrelétrica Cachoeira Ltda.,00668 - USINACACHOEIRA - Usina Hidrelétrica Cachoeira Ltda.,CHUPINGUAIA-RO,-12.58810,-60.93390,295.51,15240312,RIO CHUPINGUAIA,Setor Elétrico,Ativo
451,PCH CHUPINGUAIA JUSANTE,15553350,1,15,00668 - USINACACHOEIRA - Usina Hidrelétrica Cachoeira Ltda.,00668 - USINACACHOEIRA - Usina Hidrelétrica Cachoeira Ltda.,CHUPINGUAIA-RO,-12.58690,-60.93530,266.87,15240312,RIO CHUPINGUAIA,Setor Elétrico,Ativo
452,PCH PRIMAVERA MONTANTE 2,15553800,1,15,00290 - ELETROCESAR - Eletro Cesar Geração de Energia Ltda,00290 - ELETROCESAR - Eletro Cesar Geração de Energia Ltda,PRIMAVERA DE RONDÔNIA-RO,-12.26780,-61.07560,214.00,15240310,RIO APEDIA  ou PIMENTA BUENO,Setor Elétrico,Ativo
453,PCH CESAR FILHO BARRAMENTO,15553900,1,15,00530 - C TABOCA - Centrais Elétricas Taboca Ltda.,00530 - C TABOCA - Centrais Elétricas Taboca Ltda.,CHUPINGUAIA-RO,-12.27080,-61.18720,276.00,15240309,RIO TABOCA,Setor Elétrico,Ativo
454,PCH CESAR FILHO JUSANTE,15553950,1,15,00530 - C TABOCA - Centrais Elétricas Taboca Ltda.,00530 - C TABOCA - Centrais Elétricas Taboca Ltda.,CHUPINGUAIA-RO,-12.25940,-61.18890,232.00,15240309,RIO TABOCA,Setor Elétrico,Ativo
455,PCH PRIMAVERA MONTANTE 1,15555300,1,15,00290 - ELETROCESAR - Eletro Cesar Geração de Energia Ltda,00290 - ELETROCESAR - Eletro Cesar Geração de Energia Ltda,PRIMAVERA DE RONDÔNIA-RO,-11.94750,-61.22000,191.00,15240310,RIO APEDIA  ou PIMENTA BUENO,Setor Elétrico,Ativo
456,PCH PRIMAVERA BARRAMENTO,15555500,1,15,00290 - ELETROCESAR - Eletro Cesar Geração de Energia Ltda,00290 - ELETROCESAR - Eletro Cesar Geração de Energia Ltda,PRIMAVERA DE RONDÔNIA-RO,-11.90390,-61.23310,200.00,15240310,RIO APEDIA  ou PIMENTA BUENO,Setor Elétrico,Ativo
457,PCH PRIMAVERA JUSANTE,15555800,1,15,00290 - ELETROCESAR - Eletro Cesar Geração de Energia Ltda,00290 - ELETROCESAR - Eletro Cesar Geração de Energia Ltda,PRIMAVERA DE RONDÔNIA-RO,-11.90250,-61.23970,194.00,15240310,RIO APEDIA  ou PIMENTA BUENO,Setor Elétrico,Ativo
458,PIMENTA BUENO,15558000,1,15,00082 - CPRM - Cia de Pesquisa de Recursos Minerais,00001 - ANA - Agência Nacional de Águas ,PIMENTA BUENO-RO,-11.68360,-61.19220,0.00,15240310,RIO APEDIA  ou PIMENTA BUENO,RHN,Ativo
459,CACOAL,15558200,1,15,00082 - CPRM - Cia de Pesquisa de Recursos Minerais,00001 - ANA - Agência Nacional de Águas ,CACOAL-RO,-11.44440,-61.44080,160.00,15240347,RIO PIRARA,RHN,Ativo
460,SÍTIO BELA VISTA,15559000,1,15,00082 - CPRM - Cia de Pesquisa de Recursos Minerais,00001 - ANA - Agência Nacional de Águas ,PIMENTA BUENO-RO,-11.65250,-61.21500,0.00,15240000,RIO JI-PARANÁ (ou MACHADO),RHN,Ativo
461,SÍTIO BELA VISTA,15559000,1,15,00082 - CPRM - Cia de Pesquisa de Recursos Minerais,00001 - ANA - Agência Nacional de Águas ,PIMENTA BUENO-RO,-11.65250,-61.21500,0.00,15240000,RIO JI-PARANÁ (ou MACHADO),CotaOnline,Ativo
462,SÍTIO BELA VISTA,15559001,1,15,00082 - CPRM - Cia de Pesquisa de Recursos Minerais,00001 - ANA - Agência Nacional de Águas ,PIMENTA BUENO-RO,-11.65250,-61.21500,0.00,15240000,RIO JI-PARANÁ (ou MACHADO),RHN,Ativo
463,JI-PARANÁ,15560000,1,15,00082 - CPRM - Cia de Pesquisa de Recursos Minerais,00001 - ANA - Agência Nacional de Águas ,JI-PARANÁ-RO,-10.87360,-61.93560,129.60,15240000,RIO JI-PARANÁ (ou MACHADO),CotaOnline,Ativo
464,JI-PARANÁ,15560000,1,15,00082 - CPRM - Cia de Pesquisa de Recursos Minerais,00001 - ANA - Agência Nacional de Águas ,JI-PARANÁ-RO,-10.87360,-61.93560,129.60,15240000,RIO JI-PARANÁ (ou MACHADO),RHN,Ativo
465,JARUARU,15564000,1,15,00082 - CPRM - Cia de Pesquisa de Recursos Minerais,00001 - ANA - Agência Nacional de Águas ,JARU-RO,-10.83170,-62.89250,0.00,15240500,RIO JARU,RHN,Ativo
466,TABAJARA,15580000,1,15,00082 - CPRM - Cia de Pesquisa de Recursos Minerais,00001 - ANA - Agência Nacional de Águas ,MACHADINHO D''OESTE-RO,-8.93220,-62.05560,68.00,15240000,RIO JI-PARANÁ (ou MACHADO),RHN,Ativo
467,UHE SANTO ANTÔNIO PAPAGAIO,15627000,1,15,00354 - SANTO ANTÔNIO - Santo Antônio Energia S.A,00354 - SANTO ANTÔNIO - Santo Antônio Energia S.A,PORTO VELHO-RO,-8.18030,-63.09110,53.15,15200000,RIO MADEIRA,Setor Elétrico,Ativo
468,ESPÍRITO SANTO,15627300,1,15,00003 - DNIT - DNIT,00003 - DNIT - DNIT,PORTO VELHO-RO,-8.19250,-63.13330,33.00,15200000,RIO MADEIRA,RHN,Ativo
469,MANICORÉ,15627315,1,15,00003 - DNIT - DNIT,00003 - DNIT - DNIT,MANICORÉ-AM,-6.22530,-62.23810,0.00,15200000,RIO MADEIRA,RHN,Ativo
470,SÃO RAFAEL,15627320,1,15,00003 - DNIT - DNIT,00003 - DNIT - DNIT,HUMAITÁ-AM,-6.51360,-62.32640,0.00,15200000,RIO MADEIRA,RHN,Ativo
471,POUSO ALEGRE,15627340,1,15,00003 - DNIT - DNIT,00003 - DNIT - DNIT,HUMAITÁ-AM,-6.82890,-62.65140,0.00,15200000,RIO MADEIRA,RHN,Ativo
472,MOANENSE,15627360,1,15,00003 - DNIT - DNIT,00003 - DNIT - DNIT,HUMAITÁ-AM,-6.99580,-62.81830,0.00,15200000,RIO MADEIRA,RHN,Ativo
473,CALAMA,15627400,1,15,00003 - DNIT - DNIT,00003 - DNIT - DNIT,PORTO VELHO-RO,-8.08060,-62.87810,31.00,15200000,RIO MADEIRA,RHN,Ativo
474,UHE SANTO ANTÔNIO HUMAITÁ,15629000,1,15,00354 - SANTO ANTÔNIO - Santo Antônio Energia S.A,00354 - SANTO ANTÔNIO - Santo Antônio Energia S.A,HUMAITÁ-AM,-7.50530,-63.02110,50.44,15200000,RIO MADEIRA,Setor Elétrico,Ativo
475,HUMAITÁ,15630000,1,15,00500 - ÁGUA E SOLO - Água e Solo Estudos e Projetos Ltda.,00001 - ANA - Agência Nacional de Águas ,HUMAITÁ-AM,-7.50280,-63.01830,0.00,15200000,RIO MADEIRA,RHN,Ativo
476,HUMAITÁ,15630000,1,15,00500 - ÁGUA E SOLO - Água e Solo Estudos e Projetos Ltda.,00001 - ANA - Agência Nacional de Águas ,HUMAITÁ-AM,-7.50280,-63.01830,0.00,15200000,RIO MADEIRA,CotaOnline,Ativo
477,MAICI-MIRIM,15660000,1,15,00500 - ÁGUA E SOLO - Água e Solo Estudos e Projetos Ltda.,00001 - ANA - Agência Nacional de Águas ,HUMAITÁ-AM,-7.63030,-62.65530,0.00,15250880,RIO MAICIMIRIM,RHN,Ativo
478,CURUÇÁ,15700050,1,15,00003 - DNIT - DNIT,00003 - DNIT - DNIT,MANICORÉ-AM,-6.03530,-61.69220,0.00,15200000,RIO MADEIRA,RHN,Ativo
479,AUXILIADORA,15700060,1,15,00003 - DNIT - DNIT,00003 - DNIT - DNIT,MANICORÉ-AM,-6.22940,-61.83220,0.00,15200000,RIO MADEIRA,RHN,Ativo
480,PCH JUINA MONTANTE 2,15710000,1,15,00325 - JURUENA_SA - Juruena Energia S.A.,00325 - JURUENA_SA - Juruena Energia S.A.,JUÍNA-MT,-11.57780,-59.20580,302.00,15261250,RIO VINTE E UM,Setor Elétrico,Ativo
481,PCH JUINA MONTANTE 1,15720000,1,15,00325 - JURUENA_SA - Juruena Energia S.A.,00325 - JURUENA_SA - Juruena Energia S.A.,JUÍNA-MT,-11.41310,-59.17030,297.00,15261280,RIO CINTA LARGA,Setor Elétrico,Ativo
482,PCH JUINA BARRAMENTO,15730000,1,15,00325 - JURUENA_SA - Juruena Energia S.A.,00325 - JURUENA_SA - Juruena Energia S.A.,JUÍNA-MT,-11.31140,-59.22250,271.00,15260000,RIO ARIPUANÃ,Setor Elétrico,Ativo
483,PCH JUINA JUSANTE,15740000,1,15,00325 - JURUENA_SA - Juruena Energia S.A.,00325 - JURUENA_SA - Juruena Energia S.A.,JUÍNA-MT,-11.30970,-59.22360,300.00,15260000,RIO ARIPUANÃ,Setor Elétrico,Ativo
484,CGH ARIPUANÃ MONTANTE,15748000,1,15,00325 - JURUENA_SA - Juruena Energia S.A.,00325 - JURUENA_SA - Juruena Energia S.A.,ARIPUANÃ-MT,-10.32190,-59.46220,227.00,15260000,RIO ARIPUANÃ,Setor Elétrico,Ativo
485,UHE DARDANELOS MONTANTE,15750500,1,15,00531 - ÁGUAS DA PEDRA - Energética Águas da Pedra S.A,00531 - ÁGUAS DA PEDRA - Energética Águas da Pedra S.A,ARIPUANÃ-MT,-10.18310,-59.47190,216.80,15260000,RIO ARIPUANÃ,Setor Elétrico,Ativo
486,UHE DARDANELOS BARRAMENTO,15750550,1,15,00531 - ÁGUAS DA PEDRA - Energética Águas da Pedra S.A,00531 - ÁGUAS DA PEDRA - Energética Águas da Pedra S.A,ARIPUANÃ-MT,-10.16110,-59.46060,218.00,15260000,RIO ARIPUANÃ,Setor Elétrico,Ativo
487,UHE DARDANELOS JUSANTE,15750600,1,15,00531 - ÁGUAS DA PEDRA - Energética Águas da Pedra S.A,00531 - ÁGUAS DA PEDRA - Energética Águas da Pedra S.A,ARIPUANÃ-MT,-10.11000,-59.43720,117.73,15260000,RIO ARIPUANÃ,Setor Elétrico,Ativo
488,PCH FAXINAL II MONTANTE,15753900,1,15,00492 - DARDANELOS - Centrais Elétricas Salto dos Dardanelos S.A,00492 - DARDANELOS - Centrais Elétricas Salto dos Dardanelos S.A,ARIPUANÃ-MT,-10.19860,-59.46860,218.00,15260000,RIO ARIPUANÃ,Setor Elétrico,Ativo
489,CGH FAXINAL I JUSANTE,15754000,1,15,00492 - DARDANELOS - Centrais Elétricas Salto dos Dardanelos S.A,00492 - DARDANELOS - Centrais Elétricas Salto dos Dardanelos S.A,ARIPUANÃ-MT,-10.16470,-59.44670,167.00,15260000,RIO ARIPUANÃ,Setor Elétrico,Ativo
490,NOVO ARIPUANÃ,15850050,1,15,00003 - DNIT - DNIT,00003 - DNIT - DNIT,MANICORÉ-AM,-5.08030,-60.32330,0.00,15200000,RIO MADEIRA,RHN,Ativo
491,MACACO  PREGO,15850060,1,15,00003 - DNIT - DNIT,00003 - DNIT - DNIT,MANICORÉ-AM,-5.45080,-60.72720,0.00,15200000,RIO MADEIRA,RHN,Ativo
492,FAZENDA VISTA ALEGRE,15860000,1,15,00500 - ÁGUA E SOLO - Água e Solo Estudos e Projetos Ltda.,00001 - ANA - Agência Nacional de Águas ,NOVO ARIPUANÃ-AM,-4.89720,-60.02530,0.00,15200000,RIO MADEIRA,RHN,Ativo
493,BORBA,15900000,1,15,00500 - ÁGUA E SOLO - Água e Solo Estudos e Projetos Ltda.,00001 - ANA - Agência Nacional de Águas ,BORBA-AM,-4.38920,-59.59860,0.00,15200000,RIO MADEIRA,CotaOnline,Ativo
494,SANTARÉM SUCUNDURI,15910000,1,15,00500 - ÁGUA E SOLO - Água e Solo Estudos e Projetos Ltda.,00001 - ANA - Agência Nacional de Águas ,APUÍ-AM,-6.79560,-59.04220,49.00,15270100,RIO SUCUNDURI,RHN,Ativo
495,NOVA OLINDA DO NORTE,15940000,1,15,00500 - ÁGUA E SOLO - Água e Solo Estudos e Projetos Ltda.,00001 - ANA - Agência Nacional de Águas ,NOVA OLINDA DO NORTE-AM,-3.88470,-59.08970,0.00,15200000,RIO MADEIRA,CotaOnline,Ativo
496,URUCURITUBA DO MADEIRA,15960000,1,15,00082 - CPRM - Cia de Pesquisa de Recursos Minerais,00001 - ANA - Agência Nacional de Águas ,AUTAZES-AM,-3.54670,-58.92440,0.00,15200000,RIO MADEIRA,Açudes Semiárido,Ativo
497,URUCURITUBA,15960060,1,15,00003 - DNIT - DNIT,00003 - DNIT - DNIT,AUTAZES-AM,-3.54890,-58.92690,0.00,15200000,RIO MADEIRA,RHN,Ativo
498,UHE PITINGA MONTANTE,16018000,1,16,00588 - TABOCA - Mineração Taboca S.A,00588 - TABOCA - Mineração Taboca S.A,PRESIDENTE FIGUEIREDO-AM,-0.58500,-59.77610,128.00,16261000,RIO PITINGA,Setor Elétrico,Ativo
499,UHE PITINGA SERRA,16019000,1,16,00588 - TABOCA - Mineração Taboca S.A,00588 - TABOCA - Mineração Taboca S.A,PRESIDENTE FIGUEIREDO-AM,-0.59560,-59.77720,113.00,16718200,IGARAPÉ DA SERRA,Setor Elétrico,Ativo
500,UHE PITINGA BARRAMENTO,16020000,1,16,00588 - TABOCA - Mineração Taboca S.A,00588 - TABOCA - Mineração Taboca S.A,PRESIDENTE FIGUEIREDO-AM,-0.86580,-59.60470,122.00,16261000,RIO PITINGA,Setor Elétrico,Ativo
501,UHE PITINGA JUSANTE,16020100,1,16,00588 - TABOCA - Mineração Taboca S.A,00588 - TABOCA - Mineração Taboca S.A,PRESIDENTE FIGUEIREDO-AM,-0.86610,-59.60110,70.00,16261000,RIO PITINGA,Setor Elétrico,Ativo
502,UHE BALBINA RIO PITINGA,16020200,1,16,00075 - ELETRONORTE - ELETRONORTE,00075 - ELETRONORTE - ELETRONORTE,PRESIDENTE FIGUEIREDO-AM,-0.99110,-59.47970,58.00,16261000,RIO PITINGA,Setor Elétrico,Ativo
503,UHE BALBINA RIO PITINGUINHA,16024900,1,16,00075 - ELETRONORTE - ELETRONORTE,00075 - ELETRONORTE - ELETRONORTE,PRESIDENTE FIGUEIREDO-AM,-1.07810,-59.67390,52.00,16766550,Rio Piting,Setor Elétrico,Ativo
504,ITACOATIARA,16030000,1,16,00082 - CPRM - Cia de Pesquisa de Recursos Minerais,00001 - ANA - Agência Nacional de Águas ,ITACOATIARA-AM,-3.15390,-58.41140,0.00,10001000,RIO SOLIMÕES/AMAZONAS,RHN,Ativo
505,UHE BALBINA MONTANTE,16062000,1,16,00075 - ELETRONORTE - ELETRONORTE,00075 - ELETRONORTE - ELETRONORTE,PRESIDENTE FIGUEIREDO-AM,-1.21060,-60.23470,51.00,16260000,RIO UATUMA,Setor Elétrico,Ativo
506,UHE BALBINA RIO TUCUMARI,16070900,1,16,00075 - ELETRONORTE - ELETRONORTE,00075 - ELETRONORTE - ELETRONORTE,PRESIDENTE FIGUEIREDO-AM,-1.54750,-59.41500,51.00,16260050,Igarapé Tu,Setor Elétrico,Ativo
507,UHE BALBINA BARRAMENTO,16070980,1,16,00075 - ELETRONORTE - ELETRONORTE,00075 - ELETRONORTE - ELETRONORTE,PRESIDENTE FIGUEIREDO-AM,-1.91610,-59.47560,52.00,16260000,RIO UATUMA,Setor Elétrico,Ativo
508,UHE BALBINA BARRAMENTO CANAL DE FUGA,16070990,1,16,00075 - ELETRONORTE - ELETRONORTE,00075 - ELETRONORTE - ELETRONORTE,PRESIDENTE FIGUEIREDO-AM,-1.91610,-59.47440,0.00,16260000,RIO UATUMA,Setor Elétrico,Ativo
509,UHE BALBINA JUSANTE,16090000,1,16,00075 - ELETRONORTE - ELETRONORTE,00075 - ELETRONORTE - ELETRONORTE,PRESIDENTE FIGUEIREDO-AM,-1.94940,-59.47670,28.00,16260000,RIO UATUMA,Setor Elétrico,Ativo
